$GPGGA,150844.361,4111.566,N,00840.884,W,1,12,1.0,0.0,M,0.0,M,,*7C
$GPGSA,A,3,01,02,03,04,05,06,07,08,09,10,11,12,1.0,1.0,1.0*30
$GPRMC,150844.361,A,4111.566,N,00840.884,W,038.9,013.7,290622,000.0,W*62
$GPGGA,150845.361,4111.577,N,00840.881,W,1,12,1.0,0.0,M,0.0,M,,*78
$GPGSA,A,3,01,02,03,04,05,06,07,08,09,10,11,12,1.0,1.0,1.0*30
$GPRMC,150845.361,A,4111.577,N,00840.881,W,038.9,013.7,290622,000.0,W*66
$GPGGA,150846.361,4111.588,N,00840.879,W,1,12,1.0,0.0,M,0.0,M,,*7C
$GPGSA,A,3,01,02,03,04,05,06,07,08,09,10,11,12,1.0,1.0,1.0*30
$GPRMC,150846.361,A,4111.588,N,00840.879,W,038.9,005.4,290622,000.0,W*66
$GPGGA,150847.361,4111.598,N,00840.878,W,1,12,1.0,0.0,M,0.0,M,,*7D
$GPGSA,A,3,01,02,03,04,05,06,07,08,09,10,11,12,1.0,1.0,1.0*30
$GPRMC,150847.361,A,4111.598,N,00840.878,W,038.9,005.4,290622,000.0,W*67
$GPGGA,150848.361,4111.609,N,00840.877,W,1,12,1.0,0.0,M,0.0,M,,*76
$GPGSA,A,3,01,02,03,04,05,06,07,08,09,10,11,12,1.0,1.0,1.0*30
$GPRMC,150848.361,A,4111.609,N,00840.877,W,038.9,005.4,290622,000.0,W*6C
$GPGGA,150849.361,4111.620,N,00840.876,W,1,12,1.0,0.0,M,0.0,M,,*7D
$GPGSA,A,3,01,02,03,04,05,06,07,08,09,10,11,12,1.0,1.0,1.0*30
$GPRMC,150849.361,A,4111.620,N,00840.876,W,038.9,005.4,290622,000.0,W*67
$GPGGA,150850.361,4111.631,N,00840.875,W,1,12,1.0,0.0,M,0.0,M,,*76
$GPGSA,A,3,01,02,03,04,05,06,07,08,09,10,11,12,1.0,1.0,1.0*30
$GPRMC,150850.361,A,4111.631,N,00840.875,W,038.9,005.4,290622,000.0,W*6C
$GPGGA,150851.361,4111.641,N,00840.874,W,1,12,1.0,0.0,M,0.0,M,,*71
$GPGSA,A,3,01,02,03,04,05,06,07,08,09,10,11,12,1.0,1.0,1.0*30
$GPRMC,150851.361,A,4111.641,N,00840.874,W,038.9,005.4,290622,000.0,W*6B
$GPGGA,150852.361,4111.652,N,00840.873,W,1,12,1.0,0.0,M,0.0,M,,*77
$GPGSA,A,3,01,02,03,04,05,06,07,08,09,10,11,12,1.0,1.0,1.0*30
$GPRMC,150852.361,A,4111.652,N,00840.873,W,038.9,005.4,290622,000.0,W*6D
$GPGGA,150853.361,4111.663,N,00840.872,W,1,12,1.0,0.0,M,0.0,M,,*75
$GPGSA,A,3,01,02,03,04,05,06,07,08,09,10,11,12,1.0,1.0,1.0*30
$GPRMC,150853.361,A,4111.663,N,00840.872,W,038.9,005.4,290622,000.0,W*6F
$GPGGA,150854.361,4111.674,N,00840.871,W,1,12,1.0,0.0,M,0.0,M,,*77
$GPGSA,A,3,01,02,03,04,05,06,07,08,09,10,11,12,1.0,1.0,1.0*30
$GPRMC,150854.361,A,4111.674,N,00840.871,W,038.9,005.4,290622,000.0,W*6D
$GPGGA,150855.361,4111.684,N,00840.870,W,1,12,1.0,0.0,M,0.0,M,,*78
$GPGSA,A,3,01,02,03,04,05,06,07,08,09,10,11,12,1.0,1.0,1.0*30
$GPRMC,150855.361,A,4111.684,N,00840.870,W,038.9,005.4,290622,000.0,W*62
$GPGGA,150856.361,4111.695,N,00840.869,W,1,12,1.0,0.0,M,0.0,M,,*73
$GPGSA,A,3,01,02,03,04,05,06,07,08,09,10,11,12,1.0,1.0,1.0*30
$GPRMC,150856.361,A,4111.695,N,00840.869,W,038.9,005.4,290622,000.0,W*69
$GPGGA,150857.361,4111.706,N,00840.868,W,1,12,1.0,0.0,M,0.0,M,,*78
$GPGSA,A,3,01,02,03,04,05,06,07,08,09,10,11,12,1.0,1.0,1.0*30
$GPRMC,150857.361,A,4111.706,N,00840.868,W,038.9,002.0,290622,000.0,W*61
$GPGGA,150858.361,4111.717,N,00840.867,W,1,12,1.0,0.0,M,0.0,M,,*78
$GPGSA,A,3,01,02,03,04,05,06,07,08,09,10,11,12,1.0,1.0,1.0*30
$GPRMC,150858.361,A,4111.717,N,00840.867,W,038.9,002.0,290622,000.0,W*61
$GPGGA,150859.361,4111.728,N,00840.867,W,1,12,1.0,0.0,M,0.0,M,,*75
$GPGSA,A,3,01,02,03,04,05,06,07,08,09,10,11,12,1.0,1.0,1.0*30
$GPRMC,150859.361,A,4111.728,N,00840.867,W,038.9,002.0,290622,000.0,W*6C
$GPGGA,150900.361,4111.738,N,00840.866,W,1,12,1.0,0.0,M,0.0,M,,*78
$GPGSA,A,3,01,02,03,04,05,06,07,08,09,10,11,12,1.0,1.0,1.0*30
$GPRMC,150900.361,A,4111.738,N,00840.866,W,038.9,002.0,290622,000.0,W*61
$GPGGA,150901.361,4111.749,N,00840.866,W,1,12,1.0,0.0,M,0.0,M,,*7F
$GPGSA,A,3,01,02,03,04,05,06,07,08,09,10,11,12,1.0,1.0,1.0*30
$GPRMC,150901.361,A,4111.749,N,00840.866,W,038.9,002.0,290622,000.0,W*66
$GPGGA,150902.361,4111.760,N,00840.866,W,1,12,1.0,0.0,M,0.0,M,,*77
$GPGSA,A,3,01,02,03,04,05,06,07,08,09,10,11,12,1.0,1.0,1.0*30
$GPRMC,150902.361,A,4111.760,N,00840.866,W,038.9,002.9,290622,000.0,W*67
$GPGGA,150903.361,4111.771,N,00840.865,W,1,12,1.0,0.0,M,0.0,M,,*75
$GPGSA,A,3,01,02,03,04,05,06,07,08,09,10,11,12,1.0,1.0,1.0*30
$GPRMC,150903.361,A,4111.771,N,00840.865,W,038.9,002.9,290622,000.0,W*65
$GPGGA,150904.361,4111.781,N,00840.865,W,1,12,1.0,0.0,M,0.0,M,,*7D
$GPGSA,A,3,01,02,03,04,05,06,07,08,09,10,11,12,1.0,1.0,1.0*30
$GPRMC,150904.361,A,4111.781,N,00840.865,W,038.9,002.9,290622,000.0,W*6D
$GPGGA,150905.361,4111.792,N,00840.864,W,1,12,1.0,0.0,M,0.0,M,,*7F
$GPGSA,A,3,01,02,03,04,05,06,07,08,09,10,11,12,1.0,1.0,1.0*30
$GPRMC,150905.361,A,4111.792,N,00840.864,W,038.9,002.9,290622,000.0,W*6F
$GPGGA,150906.361,4111.803,N,00840.863,W,1,12,1.0,0.0,M,0.0,M,,*7C
$GPGSA,A,3,01,02,03,04,05,06,07,08,09,10,11,12,1.0,1.0,1.0*30
$GPRMC,150906.361,A,4111.803,N,00840.863,W,038.9,002.9,290622,000.0,W*6C
$GPGGA,150907.361,4111.814,N,00840.863,W,1,12,1.0,0.0,M,0.0,M,,*7B
$GPGSA,A,3,01,02,03,04,05,06,07,08,09,10,11,12,1.0,1.0,1.0*30
$GPRMC,150907.361,A,4111.814,N,00840.863,W,038.9,002.9,290622,000.0,W*6B
$GPGGA,150908.361,4111.825,N,00840.862,W,1,12,1.0,0.0,M,0.0,M,,*77
$GPGSA,A,3,01,02,03,04,05,06,07,08,09,10,11,12,1.0,1.0,1.0*30
$GPRMC,150908.361,A,4111.825,N,00840.862,W,038.9,002.9,290622,000.0,W*67
$GPGGA,150909.361,4111.835,N,00840.862,W,1,12,1.0,0.0,M,0.0,M,,*77
$GPGSA,A,3,01,02,03,04,05,06,07,08,09,10,11,12,1.0,1.0,1.0*30
$GPRMC,150909.361,A,4111.835,N,00840.862,W,038.9,002.9,290622,000.0,W*67
$GPGGA,150910.361,4111.846,N,00840.861,W,1,12,1.0,0.0,M,0.0,M,,*78
$GPGSA,A,3,01,02,03,04,05,06,07,08,09,10,11,12,1.0,1.0,1.0*30
$GPRMC,150910.361,A,4111.846,N,00840.861,W,038.9,002.9,290622,000.0,W*68
$GPGGA,150911.361,4111.857,N,00840.861,W,1,12,1.0,0.0,M,0.0,M,,*79
$GPGSA,A,3,01,02,03,04,05,06,07,08,09,10,11,12,1.0,1.0,1.0*30
$GPRMC,150911.361,A,4111.857,N,00840.861,W,038.9,002.9,290622,000.0,W*69
$GPGGA,150912.361,4111.868,N,00840.860,W,1,12,1.0,0.0,M,0.0,M,,*77
$GPGSA,A,3,01,02,03,04,05,06,07,08,09,10,11,12,1.0,1.0,1.0*30
$GPRMC,150912.361,A,4111.868,N,00840.860,W,038.9,002.9,290622,000.0,W*67
$GPGGA,150913.361,4111.879,N,00840.860,W,1,12,1.0,0.0,M,0.0,M,,*76
$GPGSA,A,3,01,02,03,04,05,06,07,08,09,10,11,12,1.0,1.0,1.0*30
$GPRMC,150913.361,A,4111.879,N,00840.860,W,038.9,002.9,290622,000.0,W*66
$GPGGA,150914.361,4111.889,N,00840.859,W,1,12,1.0,0.0,M,0.0,M,,*74
$GPGSA,A,3,01,02,03,04,05,06,07,08,09,10,11,12,1.0,1.0,1.0*30
$GPRMC,150914.361,A,4111.889,N,00840.859,W,038.9,002.9,290622,000.0,W*64
$GPGGA,150915.361,4111.900,N,00840.859,W,1,12,1.0,0.0,M,0.0,M,,*75
$GPGSA,A,3,01,02,03,04,05,06,07,08,09,10,11,12,1.0,1.0,1.0*30
$GPRMC,150915.361,A,4111.900,N,00840.859,W,038.9,002.9,290622,000.0,W*65
$GPGGA,150916.361,4111.911,N,00840.858,W,1,12,1.0,0.0,M,0.0,M,,*77
$GPGSA,A,3,01,02,03,04,05,06,07,08,09,10,11,12,1.0,1.0,1.0*30
$GPRMC,150916.361,A,4111.911,N,00840.858,W,038.9,002.9,290622,000.0,W*67
$GPGGA,150917.361,4111.922,N,00840.857,W,1,12,1.0,0.0,M,0.0,M,,*79
$GPGSA,A,3,01,02,03,04,05,06,07,08,09,10,11,12,1.0,1.0,1.0*30
$GPRMC,150917.361,A,4111.922,N,00840.857,W,038.9,002.9,290622,000.0,W*69
$GPGGA,150918.361,4111.932,N,00840.857,W,1,12,1.0,0.0,M,0.0,M,,*77
$GPGSA,A,3,01,02,03,04,05,06,07,08,09,10,11,12,1.0,1.0,1.0*30
$GPRMC,150918.361,A,4111.932,N,00840.857,W,038.9,002.9,290622,000.0,W*67
$GPGGA,150919.361,4111.943,N,00840.856,W,1,12,1.0,0.0,M,0.0,M,,*71
$GPGSA,A,3,01,02,03,04,05,06,07,08,09,10,11,12,1.0,1.0,1.0*30
$GPRMC,150919.361,A,4111.943,N,00840.856,W,038.9,002.9,290622,000.0,W*61
$GPGGA,150920.361,4111.954,N,00840.856,W,1,12,1.0,0.0,M,0.0,M,,*7D
$GPGSA,A,3,01,02,03,04,05,06,07,08,09,10,11,12,1.0,1.0,1.0*30
$GPRMC,150920.361,A,4111.954,N,00840.856,W,038.9,002.9,290622,000.0,W*6D
$GPGGA,150921.361,4111.965,N,00840.855,W,1,12,1.0,0.0,M,0.0,M,,*7D
$GPGSA,A,3,01,02,03,04,05,06,07,08,09,10,11,12,1.0,1.0,1.0*30
$GPRMC,150921.361,A,4111.965,N,00840.855,W,038.9,002.9,290622,000.0,W*6D
$GPGGA,150922.361,4111.976,N,00840.855,W,1,12,1.0,0.0,M,0.0,M,,*7C
$GPGSA,A,3,01,02,03,04,05,06,07,08,09,10,11,12,1.0,1.0,1.0*30
$GPRMC,150922.361,A,4111.976,N,00840.855,W,038.9,002.9,290622,000.0,W*6C
$GPGGA,150923.361,4111.986,N,00840.854,W,1,12,1.0,0.0,M,0.0,M,,*73
$GPGSA,A,3,01,02,03,04,05,06,07,08,09,10,11,12,1.0,1.0,1.0*30
$GPRMC,150923.361,A,4111.986,N,00840.854,W,038.9,002.9,290622,000.0,W*63
$GPGGA,150924.361,4111.997,N,00840.854,W,1,12,1.0,0.0,M,0.0,M,,*74
$GPGSA,A,3,01,02,03,04,05,06,07,08,09,10,11,12,1.0,1.0,1.0*30
$GPRMC,150924.361,A,4111.997,N,00840.854,W,038.9,002.9,290622,000.0,W*64
$GPGGA,150925.361,4112.008,N,00840.853,W,1,12,1.0,0.0,M,0.0,M,,*7E
$GPGSA,A,3,01,02,03,04,05,06,07,08,09,10,11,12,1.0,1.0,1.0*30
$GPRMC,150925.361,A,4112.008,N,00840.853,W,038.9,023.5,290622,000.0,W*61
$GPGGA,150926.361,4112.018,N,00840.849,W,1,12,1.0,0.0,M,0.0,M,,*77
$GPGSA,A,3,01,02,03,04,05,06,07,08,09,10,11,12,1.0,1.0,1.0*30
$GPRMC,150926.361,A,4112.018,N,00840.849,W,038.9,023.5,290622,000.0,W*68
$GPGGA,150927.361,4112.028,N,00840.844,W,1,12,1.0,0.0,M,0.0,M,,*78
$GPGSA,A,3,01,02,03,04,05,06,07,08,09,10,11,12,1.0,1.0,1.0*30
$GPRMC,150927.361,A,4112.028,N,00840.844,W,038.9,023.5,290622,000.0,W*67
$GPGGA,150928.361,4112.039,N,00840.840,W,1,12,1.0,0.0,M,0.0,M,,*73
$GPGSA,A,3,01,02,03,04,05,06,07,08,09,10,11,12,1.0,1.0,1.0*30
$GPRMC,150928.361,A,4112.039,N,00840.840,W,038.9,023.5,290622,000.0,W*6C
$GPGGA,150929.361,4112.049,N,00840.835,W,1,12,1.0,0.0,M,0.0,M,,*77
$GPGSA,A,3,01,02,03,04,05,06,07,08,09,10,11,12,1.0,1.0,1.0*30
$GPRMC,150929.361,A,4112.049,N,00840.835,W,038.9,023.5,290622,000.0,W*68
$GPGGA,150930.361,4112.059,N,00840.831,W,1,12,1.0,0.0,M,0.0,M,,*7A
$GPGSA,A,3,01,02,03,04,05,06,07,08,09,10,11,12,1.0,1.0,1.0*30
$GPRMC,150930.361,A,4112.059,N,00840.831,W,038.9,050.6,290622,000.0,W*62
$GPGGA,150931.361,4112.067,N,00840.821,W,1,12,1.0,0.0,M,0.0,M,,*77
$GPGSA,A,3,01,02,03,04,05,06,07,08,09,10,11,12,1.0,1.0,1.0*30
$GPRMC,150931.361,A,4112.067,N,00840.821,W,038.9,050.6,290622,000.0,W*6F
$GPGGA,150932.361,4112.075,N,00840.811,W,1,12,1.0,0.0,M,0.0,M,,*74
$GPGSA,A,3,01,02,03,04,05,06,07,08,09,10,11,12,1.0,1.0,1.0*30
$GPRMC,150932.361,A,4112.075,N,00840.811,W,038.9,050.6,290622,000.0,W*6C
$GPGGA,150933.361,4112.083,N,00840.802,W,1,12,1.0,0.0,M,0.0,M,,*7E
$GPGSA,A,3,01,02,03,04,05,06,07,08,09,10,11,12,1.0,1.0,1.0*30
$GPRMC,150933.361,A,4112.083,N,00840.802,W,038.9,050.6,290622,000.0,W*66
$GPGGA,150934.361,4112.091,N,00840.792,W,1,12,1.0,0.0,M,0.0,M,,*7C
$GPGSA,A,3,01,02,03,04,05,06,07,08,09,10,11,12,1.0,1.0,1.0*30
$GPRMC,150934.361,A,4112.091,N,00840.792,W,038.9,050.6,290622,000.0,W*64
$GPGGA,150935.361,4112.099,N,00840.782,W,1,12,1.0,0.0,M,0.0,M,,*74
$GPGSA,A,3,01,02,03,04,05,06,07,08,09,10,11,12,1.0,1.0,1.0*30
$GPRMC,150935.361,A,4112.099,N,00840.782,W,038.9,050.6,290622,000.0,W*6C
$GPGGA,150936.361,4112.107,N,00840.772,W,1,12,1.0,0.0,M,0.0,M,,*7E
$GPGSA,A,3,01,02,03,04,05,06,07,08,09,10,11,12,1.0,1.0,1.0*30
$GPRMC,150936.361,A,4112.107,N,00840.772,W,038.9,050.6,290622,000.0,W*66
$GPGGA,150937.361,4112.115,N,00840.763,W,1,12,1.0,0.0,M,0.0,M,,*7C
$GPGSA,A,3,01,02,03,04,05,06,07,08,09,10,11,12,1.0,1.0,1.0*30
$GPRMC,150937.361,A,4112.115,N,00840.763,W,038.9,050.6,290622,000.0,W*64
$GPGGA,150938.361,4112.123,N,00840.753,W,1,12,1.0,0.0,M,0.0,M,,*75
$GPGSA,A,3,01,02,03,04,05,06,07,08,09,10,11,12,1.0,1.0,1.0*30
$GPRMC,150938.361,A,4112.123,N,00840.753,W,038.9,050.6,290622,000.0,W*6D
$GPGGA,150939.361,4112.131,N,00840.743,W,1,12,1.0,0.0,M,0.0,M,,*76
$GPGSA,A,3,01,02,03,04,05,06,07,08,09,10,11,12,1.0,1.0,1.0*30
$GPRMC,150939.361,A,4112.131,N,00840.743,W,038.9,050.6,290622,000.0,W*6E
$GPGGA,150940.361,4112.139,N,00840.734,W,1,12,1.0,0.0,M,0.0,M,,*70
$GPGSA,A,3,01,02,03,04,05,06,07,08,09,10,11,12,1.0,1.0,1.0*30
$GPRMC,150940.361,A,4112.139,N,00840.734,W,038.9,050.6,290622,000.0,W*68
$GPGGA,150941.361,4112.147,N,00840.724,W,1,12,1.0,0.0,M,0.0,M,,*79
$GPGSA,A,3,01,02,03,04,05,06,07,08,09,10,11,12,1.0,1.0,1.0*30
$GPRMC,150941.361,A,4112.147,N,00840.724,W,038.9,058.1,290622,000.0,W*6E
$GPGGA,150942.361,4112.153,N,00840.713,W,1,12,1.0,0.0,M,0.0,M,,*7B
$GPGSA,A,3,01,02,03,04,05,06,07,08,09,10,11,12,1.0,1.0,1.0*30
$GPRMC,150942.361,A,4112.153,N,00840.713,W,038.9,058.1,290622,000.0,W*6C
$GPGGA,150943.361,4112.160,N,00840.702,W,1,12,1.0,0.0,M,0.0,M,,*7A
$GPGSA,A,3,01,02,03,04,05,06,07,08,09,10,11,12,1.0,1.0,1.0*30
$GPRMC,150943.361,A,4112.160,N,00840.702,W,038.9,058.1,290622,000.0,W*6D
$GPGGA,150944.361,4112.167,N,00840.691,W,1,12,1.0,0.0,M,0.0,M,,*71
$GPGSA,A,3,01,02,03,04,05,06,07,08,09,10,11,12,1.0,1.0,1.0*30
$GPRMC,150944.361,A,4112.167,N,00840.691,W,038.9,058.1,290622,000.0,W*66
$GPGGA,150945.361,4112.174,N,00840.680,W,1,12,1.0,0.0,M,0.0,M,,*72
$GPGSA,A,3,01,02,03,04,05,06,07,08,09,10,11,12,1.0,1.0,1.0*30
$GPRMC,150945.361,A,4112.174,N,00840.680,W,038.9,058.1,290622,000.0,W*65
$GPGGA,150946.361,4112.181,N,00840.669,W,1,12,1.0,0.0,M,0.0,M,,*7C
$GPGSA,A,3,01,02,03,04,05,06,07,08,09,10,11,12,1.0,1.0,1.0*30
$GPRMC,150946.361,A,4112.181,N,00840.669,W,038.9,058.1,290622,000.0,W*6B
$GPGGA,150947.361,4112.188,N,00840.657,W,1,12,1.0,0.0,M,0.0,M,,*79
$GPGSA,A,3,01,02,03,04,05,06,07,08,09,10,11,12,1.0,1.0,1.0*30
$GPRMC,150947.361,A,4112.188,N,00840.657,W,038.9,058.1,290622,000.0,W*6E
$GPGGA,150948.361,4112.195,N,00840.646,W,1,12,1.0,0.0,M,0.0,M,,*7A
$GPGSA,A,3,01,02,03,04,05,06,07,08,09,10,11,12,1.0,1.0,1.0*30
$GPRMC,150948.361,A,4112.195,N,00840.646,W,038.9,058.1,290622,000.0,W*6D
$GPGGA,150949.361,4112.202,N,00840.635,W,1,12,1.0,0.0,M,0.0,M,,*72
$GPGSA,A,3,01,02,03,04,05,06,07,08,09,10,11,12,1.0,1.0,1.0*30
$GPRMC,150949.361,A,4112.202,N,00840.635,W,038.9,070.9,290622,000.0,W*67
$GPGGA,150950.361,4112.206,N,00840.622,W,1,12,1.0,0.0,M,0.0,M,,*78
$GPGSA,A,3,01,02,03,04,05,06,07,08,09,10,11,12,1.0,1.0,1.0*30
$GPRMC,150950.361,A,4112.206,N,00840.622,W,038.9,070.9,290622,000.0,W*6D
$GPGGA,150951.361,4112.211,N,00840.609,W,1,12,1.0,0.0,M,0.0,M,,*76
$GPGSA,A,3,01,02,03,04,05,06,07,08,09,10,11,12,1.0,1.0,1.0*30
$GPRMC,150951.361,A,4112.211,N,00840.609,W,038.9,070.9,290622,000.0,W*63
$GPGGA,150952.361,4112.215,N,00840.596,W,1,12,1.0,0.0,M,0.0,M,,*74
$GPGSA,A,3,01,02,03,04,05,06,07,08,09,10,11,12,1.0,1.0,1.0*30
$GPRMC,150952.361,A,4112.215,N,00840.596,W,038.9,070.9,290622,000.0,W*61
$GPGGA,150953.361,4112.220,N,00840.583,W,1,12,1.0,0.0,M,0.0,M,,*77
$GPGSA,A,3,01,02,03,04,05,06,07,08,09,10,11,12,1.0,1.0,1.0*30
$GPRMC,150953.361,A,4112.220,N,00840.583,W,038.9,084.6,290622,000.0,W*66
$GPGGA,150954.361,4112.221,N,00840.569,W,1,12,1.0,0.0,M,0.0,M,,*75
$GPGSA,A,3,01,02,03,04,05,06,07,08,09,10,11,12,1.0,1.0,1.0*30
$GPRMC,150954.361,A,4112.221,N,00840.569,W,038.9,084.6,290622,000.0,W*64
$GPGGA,150955.361,4112.222,N,00840.555,W,1,12,1.0,0.0,M,0.0,M,,*78
$GPGSA,A,3,01,02,03,04,05,06,07,08,09,10,11,12,1.0,1.0,1.0*30
$GPRMC,150955.361,A,4112.222,N,00840.555,W,038.9,084.6,290622,000.0,W*69
$GPGGA,150956.361,4112.224,N,00840.541,W,1,12,1.0,0.0,M,0.0,M,,*78
$GPGSA,A,3,01,02,03,04,05,06,07,08,09,10,11,12,1.0,1.0,1.0*30
$GPRMC,150956.361,A,4112.224,N,00840.541,W,038.9,084.6,290622,000.0,W*69
$GPGGA,150957.361,4112.225,N,00840.526,W,1,12,1.0,0.0,M,0.0,M,,*79
$GPGSA,A,3,01,02,03,04,05,06,07,08,09,10,11,12,1.0,1.0,1.0*30
$GPRMC,150957.361,A,4112.225,N,00840.526,W,038.9,084.6,290622,000.0,W*68
$GPGGA,150958.361,4112.226,N,00840.512,W,1,12,1.0,0.0,M,0.0,M,,*72
$GPGSA,A,3,01,02,03,04,05,06,07,08,09,10,11,12,1.0,1.0,1.0*30
$GPRMC,150958.361,A,4112.226,N,00840.512,W,038.9,084.6,290622,000.0,W*63
$GPGGA,150959.361,4112.228,N,00840.498,W,1,12,1.0,0.0,M,0.0,M,,*7E
$GPGSA,A,3,01,02,03,04,05,06,07,08,09,10,11,12,1.0,1.0,1.0*30
$GPRMC,150959.361,A,4112.228,N,00840.498,W,038.9,086.2,290622,000.0,W*69
$GPGGA,151000.361,4112.229,N,00840.484,W,1,12,1.0,0.0,M,0.0,M,,*76
$GPGSA,A,3,01,02,03,04,05,06,07,08,09,10,11,12,1.0,1.0,1.0*30
$GPRMC,151000.361,A,4112.229,N,00840.484,W,038.9,086.2,290622,000.0,W*61
$GPGGA,151001.361,4112.229,N,00840.469,W,1,12,1.0,0.0,M,0.0,M,,*74
$GPGSA,A,3,01,02,03,04,05,06,07,08,09,10,11,12,1.0,1.0,1.0*30
$GPRMC,151001.361,A,4112.229,N,00840.469,W,038.9,086.2,290622,000.0,W*63
$GPGGA,151002.361,4112.230,N,00840.455,W,1,12,1.0,0.0,M,0.0,M,,*70
$GPGSA,A,3,01,02,03,04,05,06,07,08,09,10,11,12,1.0,1.0,1.0*30
$GPRMC,151002.361,A,4112.230,N,00840.455,W,038.9,086.2,290622,000.0,W*67
$GPGGA,151003.361,4112.231,N,00840.441,W,1,12,1.0,0.0,M,0.0,M,,*75
$GPGSA,A,3,01,02,03,04,05,06,07,08,09,10,11,12,1.0,1.0,1.0*30
$GPRMC,151003.361,A,4112.231,N,00840.441,W,038.9,086.2,290622,000.0,W*62
$GPGGA,151004.361,4112.232,N,00840.426,W,1,12,1.0,0.0,M,0.0,M,,*70
$GPGSA,A,3,01,02,03,04,05,06,07,08,09,10,11,12,1.0,1.0,1.0*30
$GPRMC,151004.361,A,4112.232,N,00840.426,W,038.9,086.2,290622,000.0,W*67
$GPGGA,151005.361,4112.233,N,00840.412,W,1,12,1.0,0.0,M,0.0,M,,*77
$GPGSA,A,3,01,02,03,04,05,06,07,08,09,10,11,12,1.0,1.0,1.0*30
$GPRMC,151005.361,A,4112.233,N,00840.412,W,038.9,086.2,290622,000.0,W*60
$GPGGA,151006.361,4112.234,N,00840.398,W,1,12,1.0,0.0,M,0.0,M,,*76
$GPGSA,A,3,01,02,03,04,05,06,07,08,09,10,11,12,1.0,1.0,1.0*30
$GPRMC,151006.361,A,4112.234,N,00840.398,W,038.9,086.2,290622,000.0,W*61
$GPGGA,151007.361,4112.235,N,00840.384,W,1,12,1.0,0.0,M,0.0,M,,*7B
$GPGSA,A,3,01,02,03,04,05,06,07,08,09,10,11,12,1.0,1.0,1.0*30
$GPRMC,151007.361,A,4112.235,N,00840.384,W,038.9,086.2,290622,000.0,W*6C
$GPGGA,151008.361,4112.236,N,00840.369,W,1,12,1.0,0.0,M,0.0,M,,*74
$GPGSA,A,3,01,02,03,04,05,06,07,08,09,10,11,12,1.0,1.0,1.0*30
$GPRMC,151008.361,A,4112.236,N,00840.369,W,038.9,086.2,290622,000.0,W*63
$GPGGA,151009.361,4112.237,N,00840.355,W,1,12,1.0,0.0,M,0.0,M,,*7B
$GPGSA,A,3,01,02,03,04,05,06,07,08,09,10,11,12,1.0,1.0,1.0*30
$GPRMC,151009.361,A,4112.237,N,00840.355,W,038.9,086.2,290622,000.0,W*6C
$GPGGA,151010.361,4112.238,N,00840.341,W,1,12,1.0,0.0,M,0.0,M,,*79
$GPGSA,A,3,01,02,03,04,05,06,07,08,09,10,11,12,1.0,1.0,1.0*30
$GPRMC,151010.361,A,4112.238,N,00840.341,W,038.9,077.8,290622,000.0,W*6A
$GPGGA,151011.361,4112.241,N,00840.327,W,1,12,1.0,0.0,M,0.0,M,,*76
$GPGSA,A,3,01,02,03,04,05,06,07,08,09,10,11,12,1.0,1.0,1.0*30
$GPRMC,151011.361,A,4112.241,N,00840.327,W,038.9,077.8,290622,000.0,W*65
$GPGGA,151012.361,4112.244,N,00840.313,W,1,12,1.0,0.0,M,0.0,M,,*77
$GPGSA,A,3,01,02,03,04,05,06,07,08,09,10,11,12,1.0,1.0,1.0*30
$GPRMC,151012.361,A,4112.244,N,00840.313,W,038.9,077.8,290622,000.0,W*64
$GPGGA,151013.361,4112.247,N,00840.299,W,1,12,1.0,0.0,M,0.0,M,,*76
$GPGSA,A,3,01,02,03,04,05,06,07,08,09,10,11,12,1.0,1.0,1.0*30
$GPRMC,151013.361,A,4112.247,N,00840.299,W,038.9,077.8,290622,000.0,W*65
$GPGGA,151014.361,4112.250,N,00840.285,W,1,12,1.0,0.0,M,0.0,M,,*7A
$GPGSA,A,3,01,02,03,04,05,06,07,08,09,10,11,12,1.0,1.0,1.0*30
$GPRMC,151014.361,A,4112.250,N,00840.285,W,038.9,064.6,290622,000.0,W*65
$GPGGA,151015.361,4112.256,N,00840.273,W,1,12,1.0,0.0,M,0.0,M,,*74
$GPGSA,A,3,01,02,03,04,05,06,07,08,09,10,11,12,1.0,1.0,1.0*30
$GPRMC,151015.361,A,4112.256,N,00840.273,W,038.9,064.6,290622,000.0,W*6B
$GPGGA,151016.361,4112.261,N,00840.261,W,1,12,1.0,0.0,M,0.0,M,,*70
$GPGSA,A,3,01,02,03,04,05,06,07,08,09,10,11,12,1.0,1.0,1.0*30
$GPRMC,151016.361,A,4112.261,N,00840.261,W,038.9,064.6,290622,000.0,W*6F
$GPGGA,151017.361,4112.267,N,00840.249,W,1,12,1.0,0.0,M,0.0,M,,*7D
$GPGSA,A,3,01,02,03,04,05,06,07,08,09,10,11,12,1.0,1.0,1.0*30
$GPRMC,151017.361,A,4112.267,N,00840.249,W,038.9,064.6,290622,000.0,W*62
$GPGGA,151018.361,4112.273,N,00840.237,W,1,12,1.0,0.0,M,0.0,M,,*7E
$GPGSA,A,3,01,02,03,04,05,06,07,08,09,10,11,12,1.0,1.0,1.0*30
$GPRMC,151018.361,A,4112.273,N,00840.237,W,038.9,048.2,290622,000.0,W*6B
$GPGGA,151019.361,4112.281,N,00840.228,W,1,12,1.0,0.0,M,0.0,M,,*7C
$GPGSA,A,3,01,02,03,04,05,06,07,08,09,10,11,12,1.0,1.0,1.0*30
$GPRMC,151019.361,A,4112.281,N,00840.228,W,038.9,048.2,290622,000.0,W*69
$GPGGA,151020.361,4112.289,N,00840.218,W,1,12,1.0,0.0,M,0.0,M,,*7D
$GPGSA,A,3,01,02,03,04,05,06,07,08,09,10,11,12,1.0,1.0,1.0*30
$GPRMC,151020.361,A,4112.289,N,00840.218,W,038.9,048.2,290622,000.0,W*68
$GPGGA,151021.361,4112.298,N,00840.209,W,1,12,1.0,0.0,M,0.0,M,,*7C
$GPGSA,A,3,01,02,03,04,05,06,07,08,09,10,11,12,1.0,1.0,1.0*30
$GPRMC,151021.361,A,4112.298,N,00840.209,W,038.9,048.2,290622,000.0,W*69
$GPGGA,151022.361,4112.306,N,00840.200,W,1,12,1.0,0.0,M,0.0,M,,*70
$GPGSA,A,3,01,02,03,04,05,06,07,08,09,10,11,12,1.0,1.0,1.0*30
$GPRMC,151022.361,A,4112.306,N,00840.200,W,038.9,034.4,290622,000.0,W*68
$GPGGA,151023.361,4112.315,N,00840.193,W,1,12,1.0,0.0,M,0.0,M,,*7A
$GPGSA,A,3,01,02,03,04,05,06,07,08,09,10,11,12,1.0,1.0,1.0*30
$GPRMC,151023.361,A,4112.315,N,00840.193,W,038.9,034.4,290622,000.0,W*62
$GPGGA,151024.361,4112.325,N,00840.187,W,1,12,1.0,0.0,M,0.0,M,,*7B
$GPGSA,A,3,01,02,03,04,05,06,07,08,09,10,11,12,1.0,1.0,1.0*30
$GPRMC,151024.361,A,4112.325,N,00840.187,W,038.9,034.4,290622,000.0,W*63
$GPGGA,151025.361,4112.335,N,00840.180,W,1,12,1.0,0.0,M,0.0,M,,*7C
$GPGSA,A,3,01,02,03,04,05,06,07,08,09,10,11,12,1.0,1.0,1.0*30
$GPRMC,151025.361,A,4112.335,N,00840.180,W,038.9,034.4,290622,000.0,W*64
$GPGGA,151026.361,4112.344,N,00840.174,W,1,12,1.0,0.0,M,0.0,M,,*72
$GPGSA,A,3,01,02,03,04,05,06,07,08,09,10,11,12,1.0,1.0,1.0*30
$GPRMC,151026.361,A,4112.344,N,00840.174,W,038.9,013.5,290622,000.0,W*6E
$GPGGA,151027.361,4112.355,N,00840.171,W,1,12,1.0,0.0,M,0.0,M,,*76
$GPGSA,A,3,01,02,03,04,05,06,07,08,09,10,11,12,1.0,1.0,1.0*30
$GPRMC,151027.361,A,4112.355,N,00840.171,W,038.9,013.5,290622,000.0,W*6A
$GPGGA,151028.361,4112.365,N,00840.168,W,1,12,1.0,0.0,M,0.0,M,,*72
$GPGSA,A,3,01,02,03,04,05,06,07,08,09,10,11,12,1.0,1.0,1.0*30
$GPRMC,151028.361,A,4112.365,N,00840.168,W,038.9,013.5,290622,000.0,W*6E
$GPGGA,151029.361,4112.376,N,00840.166,W,1,12,1.0,0.0,M,0.0,M,,*7F
$GPGSA,A,3,01,02,03,04,05,06,07,08,09,10,11,12,1.0,1.0,1.0*30
$GPRMC,151029.361,A,4112.376,N,00840.166,W,038.9,013.5,290622,000.0,W*63
$GPGGA,151030.361,4112.387,N,00840.163,W,1,12,1.0,0.0,M,0.0,M,,*7C
$GPGSA,A,3,01,02,03,04,05,06,07,08,09,10,11,12,1.0,1.0,1.0*30
$GPRMC,151030.361,A,4112.387,N,00840.163,W,038.9,013.5,290622,000.0,W*60
$GPGGA,151031.361,4112.397,N,00840.161,W,1,12,1.0,0.0,M,0.0,M,,*7E
$GPGSA,A,3,01,02,03,04,05,06,07,08,09,10,11,12,1.0,1.0,1.0*30
$GPRMC,151031.361,A,4112.397,N,00840.161,W,038.9,013.5,290622,000.0,W*62
$GPGGA,151032.361,4112.408,N,00840.158,W,1,12,1.0,0.0,M,0.0,M,,*76
$GPGSA,A,3,01,02,03,04,05,06,07,08,09,10,11,12,1.0,1.0,1.0*30
$GPRMC,151032.361,A,4112.408,N,00840.158,W,038.9,013.5,290622,000.0,W*6A
$GPGGA,151033.361,4112.418,N,00840.156,W,1,12,1.0,0.0,M,0.0,M,,*78
$GPGSA,A,3,01,02,03,04,05,06,07,08,09,10,11,12,1.0,1.0,1.0*30
$GPRMC,151033.361,A,4112.418,N,00840.156,W,038.9,013.5,290622,000.0,W*64
$GPGGA,151034.361,4112.429,N,00840.153,W,1,12,1.0,0.0,M,0.0,M,,*78
$GPGSA,A,3,01,02,03,04,05,06,07,08,09,10,11,12,1.0,1.0,1.0*30
$GPRMC,151034.361,A,4112.429,N,00840.153,W,038.9,013.5,290622,000.0,W*64
$GPGGA,151035.361,4112.440,N,00840.151,W,1,12,1.0,0.0,M,0.0,M,,*74
$GPGSA,A,3,01,02,03,04,05,06,07,08,09,10,11,12,1.0,1.0,1.0*30
$GPRMC,151035.361,A,4112.440,N,00840.151,W,038.9,013.5,290622,000.0,W*68
$GPGGA,151036.361,4112.450,N,00840.148,W,1,12,1.0,0.0,M,0.0,M,,*7E
$GPGSA,A,3,01,02,03,04,05,06,07,08,09,10,11,12,1.0,1.0,1.0*30
$GPRMC,151036.361,A,4112.450,N,00840.148,W,038.9,013.5,290622,000.0,W*62
$GPGGA,151037.361,4112.461,N,00840.145,W,1,12,1.0,0.0,M,0.0,M,,*70
$GPGSA,A,3,01,02,03,04,05,06,07,08,09,10,11,12,1.0,1.0,1.0*30
$GPRMC,151037.361,A,4112.461,N,00840.145,W,038.9,013.5,290622,000.0,W*6C
$GPGGA,151038.361,4112.472,N,00840.143,W,1,12,1.0,0.0,M,0.0,M,,*7B
$GPGSA,A,3,01,02,03,04,05,06,07,08,09,10,11,12,1.0,1.0,1.0*30
$GPRMC,151038.361,A,4112.472,N,00840.143,W,038.9,013.5,290622,000.0,W*67
$GPGGA,151039.361,4112.482,N,00840.140,W,1,12,1.0,0.0,M,0.0,M,,*76
$GPGSA,A,3,01,02,03,04,05,06,07,08,09,10,11,12,1.0,1.0,1.0*30
$GPRMC,151039.361,A,4112.482,N,00840.140,W,038.9,013.5,290622,000.0,W*6A
$GPGGA,151040.361,4112.493,N,00840.138,W,1,12,1.0,0.0,M,0.0,M,,*77
$GPGSA,A,3,01,02,03,04,05,06,07,08,09,10,11,12,1.0,1.0,1.0*30
$GPRMC,151040.361,A,4112.493,N,00840.138,W,038.9,013.5,290622,000.0,W*6B
$GPGGA,151041.361,4112.503,N,00840.135,W,1,12,1.0,0.0,M,0.0,M,,*73
$GPGSA,A,3,01,02,03,04,05,06,07,08,09,10,11,12,1.0,1.0,1.0*30
$GPRMC,151041.361,A,4112.503,N,00840.135,W,038.9,013.5,290622,000.0,W*6F
$GPGGA,151042.361,4112.514,N,00840.133,W,1,12,1.0,0.0,M,0.0,M,,*70
$GPGSA,A,3,01,02,03,04,05,06,07,08,09,10,11,12,1.0,1.0,1.0*30
$GPRMC,151042.361,A,4112.514,N,00840.133,W,038.9,013.5,290622,000.0,W*6C
$GPGGA,151043.361,4112.525,N,00840.130,W,1,12,1.0,0.0,M,0.0,M,,*70
$GPGSA,A,3,01,02,03,04,05,06,07,08,09,10,11,12,1.0,1.0,1.0*30
$GPRMC,151043.361,A,4112.525,N,00840.130,W,038.9,005.0,290622,000.0,W*6E
$GPGGA,151044.361,4112.535,N,00840.129,W,1,12,1.0,0.0,M,0.0,M,,*7E
$GPGSA,A,3,01,02,03,04,05,06,07,08,09,10,11,12,1.0,1.0,1.0*30
$GPRMC,151044.361,A,4112.535,N,00840.129,W,038.9,005.0,290622,000.0,W*60
$GPGGA,151045.361,4112.546,N,00840.128,W,1,12,1.0,0.0,M,0.0,M,,*7A
$GPGSA,A,3,01,02,03,04,05,06,07,08,09,10,11,12,1.0,1.0,1.0*30
$GPRMC,151045.361,A,4112.546,N,00840.128,W,038.9,005.0,290622,000.0,W*64
$GPGGA,151046.361,4112.557,N,00840.127,W,1,12,1.0,0.0,M,0.0,M,,*76
$GPGSA,A,3,01,02,03,04,05,06,07,08,09,10,11,12,1.0,1.0,1.0*30
$GPRMC,151046.361,A,4112.557,N,00840.127,W,038.9,005.0,290622,000.0,W*68
$GPGGA,151047.361,4112.568,N,00840.126,W,1,12,1.0,0.0,M,0.0,M,,*7A
$GPGSA,A,3,01,02,03,04,05,06,07,08,09,10,11,12,1.0,1.0,1.0*30
$GPRMC,151047.361,A,4112.568,N,00840.126,W,038.9,005.0,290622,000.0,W*64
$GPGGA,151048.361,4112.578,N,00840.125,W,1,12,1.0,0.0,M,0.0,M,,*77
$GPGSA,A,3,01,02,03,04,05,06,07,08,09,10,11,12,1.0,1.0,1.0*30
$GPRMC,151048.361,A,4112.578,N,00840.125,W,038.9,005.0,290622,000.0,W*69
$GPGGA,151049.361,4112.589,N,00840.124,W,1,12,1.0,0.0,M,0.0,M,,*79
$GPGSA,A,3,01,02,03,04,05,06,07,08,09,10,11,12,1.0,1.0,1.0*30
$GPRMC,151049.361,A,4112.589,N,00840.124,W,038.9,005.0,290622,000.0,W*67
$GPGGA,151050.361,4112.600,N,00840.123,W,1,12,1.0,0.0,M,0.0,M,,*74
$GPGSA,A,3,01,02,03,04,05,06,07,08,09,10,11,12,1.0,1.0,1.0*30
$GPRMC,151050.361,A,4112.600,N,00840.123,W,038.9,005.0,290622,000.0,W*6A
$GPGGA,151051.361,4112.611,N,00840.123,W,1,12,1.0,0.0,M,0.0,M,,*75
$GPGSA,A,3,01,02,03,04,05,06,07,08,09,10,11,12,1.0,1.0,1.0*30
$GPRMC,151051.361,A,4112.611,N,00840.123,W,038.9,005.0,290622,000.0,W*6B
$GPGGA,151052.361,4112.622,N,00840.122,W,1,12,1.0,0.0,M,0.0,M,,*77
$GPGSA,A,3,01,02,03,04,05,06,07,08,09,10,11,12,1.0,1.0,1.0*30
$GPRMC,151052.361,A,4112.622,N,00840.122,W,038.9,005.0,290622,000.0,W*69
$GPGGA,151053.361,4112.632,N,00840.121,W,1,12,1.0,0.0,M,0.0,M,,*74
$GPGSA,A,3,01,02,03,04,05,06,07,08,09,10,11,12,1.0,1.0,1.0*30
$GPRMC,151053.361,A,4112.632,N,00840.121,W,038.9,005.0,290622,000.0,W*6A
$GPGGA,151054.361,4112.643,N,00840.120,W,1,12,1.0,0.0,M,0.0,M,,*74
$GPGSA,A,3,01,02,03,04,05,06,07,08,09,10,11,12,1.0,1.0,1.0*30
$GPRMC,151054.361,A,4112.643,N,00840.120,W,038.9,005.0,290622,000.0,W*6A
$GPGGA,151055.361,4112.654,N,00840.119,W,1,12,1.0,0.0,M,0.0,M,,*79
$GPGSA,A,3,01,02,03,04,05,06,07,08,09,10,11,12,1.0,1.0,1.0*30
$GPRMC,151055.361,A,4112.654,N,00840.119,W,038.9,005.0,290622,000.0,W*67
$GPGGA,151056.361,4112.665,N,00840.118,W,1,12,1.0,0.0,M,0.0,M,,*79
$GPGSA,A,3,01,02,03,04,05,06,07,08,09,10,11,12,1.0,1.0,1.0*30
$GPRMC,151056.361,A,4112.665,N,00840.118,W,038.9,005.0,290622,000.0,W*67
$GPGGA,151057.361,4112.675,N,00840.117,W,1,12,1.0,0.0,M,0.0,M,,*76
$GPGSA,A,3,01,02,03,04,05,06,07,08,09,10,11,12,1.0,1.0,1.0*30
$GPRMC,151057.361,A,4112.675,N,00840.117,W,038.9,005.0,290622,000.0,W*68
$GPGGA,151058.361,4112.686,N,00840.116,W,1,12,1.0,0.0,M,0.0,M,,*74
$GPGSA,A,3,01,02,03,04,05,06,07,08,09,10,11,12,1.0,1.0,1.0*30
$GPRMC,151058.361,A,4112.686,N,00840.116,W,038.9,005.0,290622,000.0,W*6A
$GPGGA,151059.361,4112.697,N,00840.115,W,1,12,1.0,0.0,M,0.0,M,,*76
$GPGSA,A,3,01,02,03,04,05,06,07,08,09,10,11,12,1.0,1.0,1.0*30
$GPRMC,151059.361,A,4112.697,N,00840.115,W,038.9,005.0,290622,000.0,W*68
$GPGGA,151100.361,4112.708,N,00840.114,W,1,12,1.0,0.0,M,0.0,M,,*7D
$GPGSA,A,3,01,02,03,04,05,06,07,08,09,10,11,12,1.0,1.0,1.0*30
$GPRMC,151100.361,A,4112.708,N,00840.114,W,038.9,005.0,290622,000.0,W*63
$GPGGA,151101.361,4112.718,N,00840.113,W,1,12,1.0,0.0,M,0.0,M,,*7A
$GPGSA,A,3,01,02,03,04,05,06,07,08,09,10,11,12,1.0,1.0,1.0*30
$GPRMC,151101.361,A,4112.718,N,00840.113,W,038.9,005.0,290622,000.0,W*64
$GPGGA,151102.361,4112.729,N,00840.112,W,1,12,1.0,0.0,M,0.0,M,,*7A
$GPGSA,A,3,01,02,03,04,05,06,07,08,09,10,11,12,1.0,1.0,1.0*30
$GPRMC,151102.361,A,4112.729,N,00840.112,W,038.9,005.0,290622,000.0,W*64
$GPGGA,151103.361,4112.740,N,00840.111,W,1,12,1.0,0.0,M,0.0,M,,*77
$GPGSA,A,3,01,02,03,04,05,06,07,08,09,10,11,12,1.0,1.0,1.0*30
$GPRMC,151103.361,A,4112.740,N,00840.111,W,038.9,005.0,290622,000.0,W*69
$GPGGA,151104.361,4112.751,N,00840.110,W,1,12,1.0,0.0,M,0.0,M,,*71
$GPGSA,A,3,01,02,03,04,05,06,07,08,09,10,11,12,1.0,1.0,1.0*30
$GPRMC,151104.361,A,4112.751,N,00840.110,W,038.9,005.0,290622,000.0,W*6F
$GPGGA,151105.361,4112.762,N,00840.109,W,1,12,1.0,0.0,M,0.0,M,,*78
$GPGSA,A,3,01,02,03,04,05,06,07,08,09,10,11,12,1.0,1.0,1.0*30
$GPRMC,151105.361,A,4112.762,N,00840.109,W,038.9,005.0,290622,000.0,W*66
$GPGGA,151106.361,4112.772,N,00840.108,W,1,12,1.0,0.0,M,0.0,M,,*7B
$GPGSA,A,3,01,02,03,04,05,06,07,08,09,10,11,12,1.0,1.0,1.0*30
$GPRMC,151106.361,A,4112.772,N,00840.108,W,038.9,022.3,290622,000.0,W*63
$GPGGA,151107.361,4112.783,N,00840.104,W,1,12,1.0,0.0,M,0.0,M,,*78
$GPGSA,A,3,01,02,03,04,05,06,07,08,09,10,11,12,1.0,1.0,1.0*30
$GPRMC,151107.361,A,4112.783,N,00840.104,W,038.9,022.3,290622,000.0,W*60
$GPGGA,151108.361,4112.793,N,00840.100,W,1,12,1.0,0.0,M,0.0,M,,*72
$GPGSA,A,3,01,02,03,04,05,06,07,08,09,10,11,12,1.0,1.0,1.0*30
$GPRMC,151108.361,A,4112.793,N,00840.100,W,038.9,022.3,290622,000.0,W*6A
$GPGGA,151109.361,4112.803,N,00840.096,W,1,12,1.0,0.0,M,0.0,M,,*7B
$GPGSA,A,3,01,02,03,04,05,06,07,08,09,10,11,12,1.0,1.0,1.0*30
$GPRMC,151109.361,A,4112.803,N,00840.096,W,038.9,022.3,290622,000.0,W*63
$GPGGA,151110.361,4112.814,N,00840.092,W,1,12,1.0,0.0,M,0.0,M,,*71
$GPGSA,A,3,01,02,03,04,05,06,07,08,09,10,11,12,1.0,1.0,1.0*30
$GPRMC,151110.361,A,4112.814,N,00840.092,W,038.9,042.1,290622,000.0,W*6D
$GPGGA,151111.361,4112.822,N,00840.083,W,1,12,1.0,0.0,M,0.0,M,,*75
$GPGSA,A,3,01,02,03,04,05,06,07,08,09,10,11,12,1.0,1.0,1.0*30
$GPRMC,151111.361,A,4112.822,N,00840.083,W,038.9,042.1,290622,000.0,W*69
$GPGGA,151112.361,4112.831,N,00840.075,W,1,12,1.0,0.0,M,0.0,M,,*7D
$GPGSA,A,3,01,02,03,04,05,06,07,08,09,10,11,12,1.0,1.0,1.0*30
$GPRMC,151112.361,A,4112.831,N,00840.075,W,038.9,042.1,290622,000.0,W*61
$GPGGA,151113.361,4112.840,N,00840.067,W,1,12,1.0,0.0,M,0.0,M,,*79
$GPGSA,A,3,01,02,03,04,05,06,07,08,09,10,11,12,1.0,1.0,1.0*30
$GPRMC,151113.361,A,4112.840,N,00840.067,W,038.9,042.1,290622,000.0,W*65
$GPGGA,151114.361,4112.849,N,00840.059,W,1,12,1.0,0.0,M,0.0,M,,*7A
$GPGSA,A,3,01,02,03,04,05,06,07,08,09,10,11,12,1.0,1.0,1.0*30
$GPRMC,151114.361,A,4112.849,N,00840.059,W,038.9,042.1,290622,000.0,W*66
$GPGGA,151115.361,4112.858,N,00840.051,W,1,12,1.0,0.0,M,0.0,M,,*73
$GPGSA,A,3,01,02,03,04,05,06,07,08,09,10,11,12,1.0,1.0,1.0*30
$GPRMC,151115.361,A,4112.858,N,00840.051,W,038.9,042.1,290622,000.0,W*6F
$GPGGA,151116.361,4112.867,N,00840.043,W,1,12,1.0,0.0,M,0.0,M,,*7F
$GPGSA,A,3,01,02,03,04,05,06,07,08,09,10,11,12,1.0,1.0,1.0*30
$GPRMC,151116.361,A,4112.867,N,00840.043,W,038.9,042.1,290622,000.0,W*63
$GPGGA,151117.361,4112.876,N,00840.035,W,1,12,1.0,0.0,M,0.0,M,,*7F
$GPGSA,A,3,01,02,03,04,05,06,07,08,09,10,11,12,1.0,1.0,1.0*30
$GPRMC,151117.361,A,4112.876,N,00840.035,W,038.9,042.1,290622,000.0,W*63
$GPGGA,151118.361,4112.885,N,00840.027,W,1,12,1.0,0.0,M,0.0,M,,*7F
$GPGSA,A,3,01,02,03,04,05,06,07,08,09,10,11,12,1.0,1.0,1.0*30
$GPRMC,151118.361,A,4112.885,N,00840.027,W,038.9,042.1,290622,000.0,W*63
$GPGGA,151119.361,4112.894,N,00840.019,W,1,12,1.0,0.0,M,0.0,M,,*73
$GPGSA,A,3,01,02,03,04,05,06,07,08,09,10,11,12,1.0,1.0,1.0*30
$GPRMC,151119.361,A,4112.894,N,00840.019,W,038.9,042.1,290622,000.0,W*6F
$GPGGA,151120.361,4112.903,N,00840.011,W,1,12,1.0,0.0,M,0.0,M,,*7E
$GPGSA,A,3,01,02,03,04,05,06,07,08,09,10,11,12,1.0,1.0,1.0*30
$GPRMC,151120.361,A,4112.903,N,00840.011,W,038.9,042.1,290622,000.0,W*62
$GPGGA,151121.361,4112.912,N,00840.003,W,1,12,1.0,0.0,M,0.0,M,,*7C
$GPGSA,A,3,01,02,03,04,05,06,07,08,09,10,11,12,1.0,1.0,1.0*30
$GPRMC,151121.361,A,4112.912,N,00840.003,W,038.9,042.1,290622,000.0,W*60
$GPGGA,151122.361,4112.921,N,00839.995,W,1,12,1.0,0.0,M,0.0,M,,*77
$GPGSA,A,3,01,02,03,04,05,06,07,08,09,10,11,12,1.0,1.0,1.0*30
$GPRMC,151122.361,A,4112.921,N,00839.995,W,038.9,042.1,290622,000.0,W*6B
$GPGGA,151123.361,4112.930,N,00839.987,W,1,12,1.0,0.0,M,0.0,M,,*75
$GPGSA,A,3,01,02,03,04,05,06,07,08,09,10,11,12,1.0,1.0,1.0*30
$GPRMC,151123.361,A,4112.930,N,00839.987,W,038.9,042.1,290622,000.0,W*69
$GPGGA,151124.361,4112.938,N,00839.978,W,1,12,1.0,0.0,M,0.0,M,,*7A
$GPGSA,A,3,01,02,03,04,05,06,07,08,09,10,11,12,1.0,1.0,1.0*30
$GPRMC,151124.361,A,4112.938,N,00839.978,W,038.9,053.8,290622,000.0,W*6F
$GPGGA,151125.361,4112.946,N,00839.968,W,1,12,1.0,0.0,M,0.0,M,,*73
$GPGSA,A,3,01,02,03,04,05,06,07,08,09,10,11,12,1.0,1.0,1.0*30
$GPRMC,151125.361,A,4112.946,N,00839.968,W,038.9,053.8,290622,000.0,W*66
$GPGGA,151126.361,4112.954,N,00839.958,W,1,12,1.0,0.0,M,0.0,M,,*70
$GPGSA,A,3,01,02,03,04,05,06,07,08,09,10,11,12,1.0,1.0,1.0*30
$GPRMC,151126.361,A,4112.954,N,00839.958,W,038.9,053.8,290622,000.0,W*65
$GPGGA,151127.361,4112.961,N,00839.948,W,1,12,1.0,0.0,M,0.0,M,,*76
$GPGSA,A,3,01,02,03,04,05,06,07,08,09,10,11,12,1.0,1.0,1.0*30
$GPRMC,151127.361,A,4112.961,N,00839.948,W,038.9,053.8,290622,000.0,W*63
$GPGGA,151128.361,4112.969,N,00839.937,W,1,12,1.0,0.0,M,0.0,M,,*79
$GPGSA,A,3,01,02,03,04,05,06,07,08,09,10,11,12,1.0,1.0,1.0*30
$GPRMC,151128.361,A,4112.969,N,00839.937,W,038.9,068.7,290622,000.0,W*6B
$GPGGA,151129.361,4112.973,N,00839.925,W,1,12,1.0,0.0,M,0.0,M,,*70
$GPGSA,A,3,01,02,03,04,05,06,07,08,09,10,11,12,1.0,1.0,1.0*30
$GPRMC,151129.361,A,4112.973,N,00839.925,W,038.9,068.7,290622,000.0,W*62
$GPGGA,151130.361,4112.978,N,00839.912,W,1,12,1.0,0.0,M,0.0,M,,*77
$GPGSA,A,3,01,02,03,04,05,06,07,08,09,10,11,12,1.0,1.0,1.0*30
$GPRMC,151130.361,A,4112.978,N,00839.912,W,038.9,068.7,290622,000.0,W*65
$GPGGA,151131.361,4112.983,N,00839.899,W,1,12,1.0,0.0,M,0.0,M,,*70
$GPGSA,A,3,01,02,03,04,05,06,07,08,09,10,11,12,1.0,1.0,1.0*30
$GPRMC,151131.361,A,4112.983,N,00839.899,W,038.9,068.7,290622,000.0,W*62
$GPGGA,151132.361,4112.988,N,00839.886,W,1,12,1.0,0.0,M,0.0,M,,*76
$GPGSA,A,3,01,02,03,04,05,06,07,08,09,10,11,12,1.0,1.0,1.0*30
$GPRMC,151132.361,A,4112.988,N,00839.886,W,038.9,080.7,290622,000.0,W*62
$GPGGA,151133.361,4112.991,N,00839.872,W,1,12,1.0,0.0,M,0.0,M,,*74
$GPGSA,A,3,01,02,03,04,05,06,07,08,09,10,11,12,1.0,1.0,1.0*30
$GPRMC,151133.361,A,4112.991,N,00839.872,W,038.9,080.7,290622,000.0,W*60
$GPGGA,151134.361,4112.993,N,00839.858,W,1,12,1.0,0.0,M,0.0,M,,*79
$GPGSA,A,3,01,02,03,04,05,06,07,08,09,10,11,12,1.0,1.0,1.0*30
$GPRMC,151134.361,A,4112.993,N,00839.858,W,038.9,080.7,290622,000.0,W*6D
$GPGGA,151135.361,4112.995,N,00839.844,W,1,12,1.0,0.0,M,0.0,M,,*73
$GPGSA,A,3,01,02,03,04,05,06,07,08,09,10,11,12,1.0,1.0,1.0*30
$GPRMC,151135.361,A,4112.995,N,00839.844,W,038.9,080.7,290622,000.0,W*67
$GPGGA,151136.361,4112.998,N,00839.830,W,1,12,1.0,0.0,M,0.0,M,,*7E
$GPGSA,A,3,01,02,03,04,05,06,07,08,09,10,11,12,1.0,1.0,1.0*30
$GPRMC,151136.361,A,4112.998,N,00839.830,W,038.9,092.2,290622,000.0,W*6C
$GPGGA,151137.361,4112.997,N,00839.816,W,1,12,1.0,0.0,M,0.0,M,,*74
$GPGSA,A,3,01,02,03,04,05,06,07,08,09,10,11,12,1.0,1.0,1.0*30
$GPRMC,151137.361,A,4112.997,N,00839.816,W,038.9,092.2,290622,000.0,W*66
$GPGGA,151138.361,4112.996,N,00839.802,W,1,12,1.0,0.0,M,0.0,M,,*7F
$GPGSA,A,3,01,02,03,04,05,06,07,08,09,10,11,12,1.0,1.0,1.0*30
$GPRMC,151138.361,A,4112.996,N,00839.802,W,038.9,092.2,290622,000.0,W*6D
$GPGGA,151139.361,4112.996,N,00839.787,W,1,12,1.0,0.0,M,0.0,M,,*7C
$GPGSA,A,3,01,02,03,04,05,06,07,08,09,10,11,12,1.0,1.0,1.0*30
$GPRMC,151139.361,A,4112.996,N,00839.787,W,038.9,092.2,290622,000.0,W*6E
$GPGGA,151140.361,4112.995,N,00839.773,W,1,12,1.0,0.0,M,0.0,M,,*7A
$GPGSA,A,3,01,02,03,04,05,06,07,08,09,10,11,12,1.0,1.0,1.0*30
$GPRMC,151140.361,A,4112.995,N,00839.773,W,038.9,101.2,290622,000.0,W*63
$GPGGA,151141.361,4112.993,N,00839.759,W,1,12,1.0,0.0,M,0.0,M,,*75
$GPGSA,A,3,01,02,03,04,05,06,07,08,09,10,11,12,1.0,1.0,1.0*30
$GPRMC,151141.361,A,4112.993,N,00839.759,W,038.9,101.2,290622,000.0,W*6C
$GPGGA,151142.361,4112.990,N,00839.745,W,1,12,1.0,0.0,M,0.0,M,,*78
$GPGSA,A,3,01,02,03,04,05,06,07,08,09,10,11,12,1.0,1.0,1.0*30
$GPRMC,151142.361,A,4112.990,N,00839.745,W,038.9,101.2,290622,000.0,W*61
$GPGGA,151143.361,4112.987,N,00839.731,W,1,12,1.0,0.0,M,0.0,M,,*7C
$GPGSA,A,3,01,02,03,04,05,06,07,08,09,10,11,12,1.0,1.0,1.0*30
$GPRMC,151143.361,A,4112.987,N,00839.731,W,038.9,101.2,290622,000.0,W*65
$GPGGA,151144.361,4112.984,N,00839.717,W,1,12,1.0,0.0,M,0.0,M,,*7C
$GPGSA,A,3,01,02,03,04,05,06,07,08,09,10,11,12,1.0,1.0,1.0*30
$GPRMC,151144.361,A,4112.984,N,00839.717,W,038.9,106.6,290622,000.0,W*66
$GPGGA,151145.361,4112.980,N,00839.704,W,1,12,1.0,0.0,M,0.0,M,,*7B
$GPGSA,A,3,01,02,03,04,05,06,07,08,09,10,11,12,1.0,1.0,1.0*30
$GPRMC,151145.361,A,4112.980,N,00839.704,W,038.9,106.6,290622,000.0,W*61
$GPGGA,151146.361,4112.976,N,00839.691,W,1,12,1.0,0.0,M,0.0,M,,*7C
$GPGSA,A,3,01,02,03,04,05,06,07,08,09,10,11,12,1.0,1.0,1.0*30
$GPRMC,151146.361,A,4112.976,N,00839.691,W,038.9,106.6,290622,000.0,W*66
$GPGGA,151147.361,4112.972,N,00839.677,W,1,12,1.0,0.0,M,0.0,M,,*71
$GPGSA,A,3,01,02,03,04,05,06,07,08,09,10,11,12,1.0,1.0,1.0*30
$GPRMC,151147.361,A,4112.972,N,00839.677,W,038.9,106.6,290622,000.0,W*6B
$GPGGA,151148.361,4112.968,N,00839.664,W,1,12,1.0,0.0,M,0.0,M,,*77
$GPGSA,A,3,01,02,03,04,05,06,07,08,09,10,11,12,1.0,1.0,1.0*30
$GPRMC,151148.361,A,4112.968,N,00839.664,W,038.9,116.1,290622,000.0,W*6B
$GPGGA,151149.361,4112.963,N,00839.652,W,1,12,1.0,0.0,M,0.0,M,,*78
$GPGSA,A,3,01,02,03,04,05,06,07,08,09,10,11,12,1.0,1.0,1.0*30
$GPRMC,151149.361,A,4112.963,N,00839.652,W,038.9,116.1,290622,000.0,W*64
$GPGGA,151150.361,4112.957,N,00839.640,W,1,12,1.0,0.0,M,0.0,M,,*74
$GPGSA,A,3,01,02,03,04,05,06,07,08,09,10,11,12,1.0,1.0,1.0*30
$GPRMC,151150.361,A,4112.957,N,00839.640,W,038.9,116.1,290622,000.0,W*68
$GPGGA,151151.361,4112.951,N,00839.628,W,1,12,1.0,0.0,M,0.0,M,,*7D
$GPGSA,A,3,01,02,03,04,05,06,07,08,09,10,11,12,1.0,1.0,1.0*30
$GPRMC,151151.361,A,4112.951,N,00839.628,W,038.9,116.1,290622,000.0,W*61
$GPGGA,151152.361,4112.945,N,00839.616,W,1,12,1.0,0.0,M,0.0,M,,*76
$GPGSA,A,3,01,02,03,04,05,06,07,08,09,10,11,12,1.0,1.0,1.0*30
$GPRMC,151152.361,A,4112.945,N,00839.616,W,038.9,116.1,290622,000.0,W*6A
$GPGGA,151153.361,4112.939,N,00839.604,W,1,12,1.0,0.0,M,0.0,M,,*7F
$GPGSA,A,3,01,02,03,04,05,06,07,08,09,10,11,12,1.0,1.0,1.0*30
$GPRMC,151153.361,A,4112.939,N,00839.604,W,038.9,116.1,290622,000.0,W*63
$GPGGA,151154.361,4112.933,N,00839.592,W,1,12,1.0,0.0,M,0.0,M,,*7E
$GPGSA,A,3,01,02,03,04,05,06,07,08,09,10,11,12,1.0,1.0,1.0*30
$GPRMC,151154.361,A,4112.933,N,00839.592,W,038.9,116.1,290622,000.0,W*62
$GPGGA,151155.361,4112.927,N,00839.580,W,1,12,1.0,0.0,M,0.0,M,,*79
$GPGSA,A,3,01,02,03,04,05,06,07,08,09,10,11,12,1.0,1.0,1.0*30
$GPRMC,151155.361,A,4112.927,N,00839.580,W,038.9,125.1,290622,000.0,W*65
$GPGGA,151156.361,4112.920,N,00839.569,W,1,12,1.0,0.0,M,0.0,M,,*7A
$GPGSA,A,3,01,02,03,04,05,06,07,08,09,10,11,12,1.0,1.0,1.0*30
$GPRMC,151156.361,A,4112.920,N,00839.569,W,038.9,125.1,290622,000.0,W*66
$GPGGA,151157.361,4112.913,N,00839.559,W,1,12,1.0,0.0,M,0.0,M,,*78
$GPGSA,A,3,01,02,03,04,05,06,07,08,09,10,11,12,1.0,1.0,1.0*30
$GPRMC,151157.361,A,4112.913,N,00839.559,W,038.9,125.1,290622,000.0,W*64
$GPGGA,151158.361,4112.905,N,00839.548,W,1,12,1.0,0.0,M,0.0,M,,*70
$GPGSA,A,3,01,02,03,04,05,06,07,08,09,10,11,12,1.0,1.0,1.0*30
$GPRMC,151158.361,A,4112.905,N,00839.548,W,038.9,125.1,290622,000.0,W*6C
$GPGGA,151159.361,4112.898,N,00839.538,W,1,12,1.0,0.0,M,0.0,M,,*73
$GPGSA,A,3,01,02,03,04,05,06,07,08,09,10,11,12,1.0,1.0,1.0*30
$GPRMC,151159.361,A,4112.898,N,00839.538,W,038.9,125.1,290622,000.0,W*6F
$GPGGA,151200.361,4112.890,N,00839.527,W,1,12,1.0,0.0,M,0.0,M,,*7A
$GPGSA,A,3,01,02,03,04,05,06,07,08,09,10,11,12,1.0,1.0,1.0*30
$GPRMC,151200.361,A,4112.890,N,00839.527,W,038.9,125.1,290622,000.0,W*66
$GPGGA,151201.361,4112.883,N,00839.517,W,1,12,1.0,0.0,M,0.0,M,,*7A
$GPGSA,A,3,01,02,03,04,05,06,07,08,09,10,11,12,1.0,1.0,1.0*30
$GPRMC,151201.361,A,4112.883,N,00839.517,W,038.9,125.1,290622,000.0,W*66
$GPGGA,151202.361,4112.876,N,00839.506,W,1,12,1.0,0.0,M,0.0,M,,*73
$GPGSA,A,3,01,02,03,04,05,06,07,08,09,10,11,12,1.0,1.0,1.0*30
$GPRMC,151202.361,A,4112.876,N,00839.506,W,038.9,125.1,290622,000.0,W*6F
$GPGGA,151203.361,4112.868,N,00839.496,W,1,12,1.0,0.0,M,0.0,M,,*75
$GPGSA,A,3,01,02,03,04,05,06,07,08,09,10,11,12,1.0,1.0,1.0*30
$GPRMC,151203.361,A,4112.868,N,00839.496,W,038.9,125.1,290622,000.0,W*69
$GPGGA,151204.361,4112.861,N,00839.485,W,1,12,1.0,0.0,M,0.0,M,,*79
$GPGSA,A,3,01,02,03,04,05,06,07,08,09,10,11,12,1.0,1.0,1.0*30
$GPRMC,151204.361,A,4112.861,N,00839.485,W,038.9,125.1,290622,000.0,W*65
$GPGGA,151205.361,4112.854,N,00839.475,W,1,12,1.0,0.0,M,0.0,M,,*71
$GPGSA,A,3,01,02,03,04,05,06,07,08,09,10,11,12,1.0,1.0,1.0*30
$GPRMC,151205.361,A,4112.854,N,00839.475,W,038.9,125.1,290622,000.0,W*6D
$GPGGA,151206.361,4112.846,N,00839.464,W,1,12,1.0,0.0,M,0.0,M,,*71
$GPGSA,A,3,01,02,03,04,05,06,07,08,09,10,11,12,1.0,1.0,1.0*30
$GPRMC,151206.361,A,4112.846,N,00839.464,W,038.9,125.1,290622,000.0,W*6D
$GPGGA,151207.361,4112.839,N,00839.454,W,1,12,1.0,0.0,M,0.0,M,,*7B
$GPGSA,A,3,01,02,03,04,05,06,07,08,09,10,11,12,1.0,1.0,1.0*30
$GPRMC,151207.361,A,4112.839,N,00839.454,W,038.9,125.1,290622,000.0,W*67
$GPGGA,151208.361,4112.832,N,00839.443,W,1,12,1.0,0.0,M,0.0,M,,*79
$GPGSA,A,3,01,02,03,04,05,06,07,08,09,10,11,12,1.0,1.0,1.0*30
$GPRMC,151208.361,A,4112.832,N,00839.443,W,038.9,125.1,290622,000.0,W*65
$GPGGA,151209.361,4112.824,N,00839.433,W,1,12,1.0,0.0,M,0.0,M,,*78
$GPGSA,A,3,01,02,03,04,05,06,07,08,09,10,11,12,1.0,1.0,1.0*30
$GPRMC,151209.361,A,4112.824,N,00839.433,W,038.9,125.1,290622,000.0,W*64
$GPGGA,151210.361,4112.817,N,00839.422,W,1,12,1.0,0.0,M,0.0,M,,*70
$GPGSA,A,3,01,02,03,04,05,06,07,08,09,10,11,12,1.0,1.0,1.0*30
$GPRMC,151210.361,A,4112.817,N,00839.422,W,038.9,125.1,290622,000.0,W*6C
$GPGGA,151211.361,4112.810,N,00839.412,W,1,12,1.0,0.0,M,0.0,M,,*75
$GPGSA,A,3,01,02,03,04,05,06,07,08,09,10,11,12,1.0,1.0,1.0*30
$GPRMC,151211.361,A,4112.810,N,00839.412,W,038.9,125.1,290622,000.0,W*69
$GPGGA,151212.361,4112.802,N,00839.401,W,1,12,1.0,0.0,M,0.0,M,,*77
$GPGSA,A,3,01,02,03,04,05,06,07,08,09,10,11,12,1.0,1.0,1.0*30
$GPRMC,151212.361,A,4112.802,N,00839.401,W,038.9,125.1,290622,000.0,W*6B
$GPGGA,151213.361,4112.795,N,00839.391,W,1,12,1.0,0.0,M,0.0,M,,*79
$GPGSA,A,3,01,02,03,04,05,06,07,08,09,10,11,12,1.0,1.0,1.0*30
$GPRMC,151213.361,A,4112.795,N,00839.391,W,038.9,125.1,290622,000.0,W*65
$GPGGA,151214.361,4112.788,N,00839.380,W,1,12,1.0,0.0,M,0.0,M,,*72
$GPGSA,A,3,01,02,03,04,05,06,07,08,09,10,11,12,1.0,1.0,1.0*30
$GPRMC,151214.361,A,4112.788,N,00839.380,W,038.9,125.1,290622,000.0,W*6E
$GPGGA,151215.361,4112.780,N,00839.370,W,1,12,1.0,0.0,M,0.0,M,,*74
$GPGSA,A,3,01,02,03,04,05,06,07,08,09,10,11,12,1.0,1.0,1.0*30
$GPRMC,151215.361,A,4112.780,N,00839.370,W,038.9,125.1,290622,000.0,W*68
$GPGGA,151216.361,4112.773,N,00839.359,W,1,12,1.0,0.0,M,0.0,M,,*70
$GPGSA,A,3,01,02,03,04,05,06,07,08,09,10,11,12,1.0,1.0,1.0*30
$GPRMC,151216.361,A,4112.773,N,00839.359,W,038.9,125.1,290622,000.0,W*6C
$GPGGA,151217.361,4112.765,N,00839.349,W,1,12,1.0,0.0,M,0.0,M,,*77
$GPGSA,A,3,01,02,03,04,05,06,07,08,09,10,11,12,1.0,1.0,1.0*30
$GPRMC,151217.361,A,4112.765,N,00839.349,W,038.9,125.1,290622,000.0,W*6B
$GPGGA,151218.361,4112.758,N,00839.338,W,1,12,1.0,0.0,M,0.0,M,,*70
$GPGSA,A,3,01,02,03,04,05,06,07,08,09,10,11,12,1.0,1.0,1.0*30
$GPRMC,151218.361,A,4112.758,N,00839.338,W,038.9,116.1,290622,000.0,W*6C
$GPGGA,151219.361,4112.752,N,00839.326,W,1,12,1.0,0.0,M,0.0,M,,*74
$GPGSA,A,3,01,02,03,04,05,06,07,08,09,10,11,12,1.0,1.0,1.0*30
$GPRMC,151219.361,A,4112.752,N,00839.326,W,038.9,116.1,290622,000.0,W*68
$GPGGA,151220.361,4112.746,N,00839.314,W,1,12,1.0,0.0,M,0.0,M,,*7A
$GPGSA,A,3,01,02,03,04,05,06,07,08,09,10,11,12,1.0,1.0,1.0*30
$GPRMC,151220.361,A,4112.746,N,00839.314,W,038.9,116.1,290622,000.0,W*66
$GPGGA,151221.361,4112.740,N,00839.302,W,1,12,1.0,0.0,M,0.0,M,,*7A
$GPGSA,A,3,01,02,03,04,05,06,07,08,09,10,11,12,1.0,1.0,1.0*30
$GPRMC,151221.361,A,4112.740,N,00839.302,W,038.9,116.1,290622,000.0,W*66
$GPGGA,151222.361,4112.735,N,00839.290,W,1,12,1.0,0.0,M,0.0,M,,*71
$GPGSA,A,3,01,02,03,04,05,06,07,08,09,10,11,12,1.0,1.0,1.0*30
$GPRMC,151222.361,A,4112.735,N,00839.290,W,038.9,116.1,290622,000.0,W*6D
$GPGGA,151223.361,4112.729,N,00839.278,W,1,12,1.0,0.0,M,0.0,M,,*7B
$GPGSA,A,3,01,02,03,04,05,06,07,08,09,10,11,12,1.0,1.0,1.0*30
$GPRMC,151223.361,A,4112.729,N,00839.278,W,038.9,106.1,290622,000.0,W*66
$GPGGA,151224.361,4112.725,N,00839.265,W,1,12,1.0,0.0,M,0.0,M,,*7C
$GPGSA,A,3,01,02,03,04,05,06,07,08,09,10,11,12,1.0,1.0,1.0*30
$GPRMC,151224.361,A,4112.725,N,00839.265,W,038.9,106.1,290622,000.0,W*61
$GPGGA,151225.361,4112.721,N,00839.251,W,1,12,1.0,0.0,M,0.0,M,,*7E
$GPGSA,A,3,01,02,03,04,05,06,07,08,09,10,11,12,1.0,1.0,1.0*30
$GPRMC,151225.361,A,4112.721,N,00839.251,W,038.9,106.1,290622,000.0,W*63
$GPGGA,151226.361,4112.717,N,00839.238,W,1,12,1.0,0.0,M,0.0,M,,*77
$GPGSA,A,3,01,02,03,04,05,06,07,08,09,10,11,12,1.0,1.0,1.0*30
$GPRMC,151226.361,A,4112.717,N,00839.238,W,038.9,106.1,290622,000.0,W*6A
$GPGGA,151227.361,4112.713,N,00839.225,W,1,12,1.0,0.0,M,0.0,M,,*7E
$GPGSA,A,3,01,02,03,04,05,06,07,08,09,10,11,12,1.0,1.0,1.0*30
$GPRMC,151227.361,A,4112.713,N,00839.225,W,038.9,106.1,290622,000.0,W*63
$GPGGA,151228.361,4112.709,N,00839.211,W,1,12,1.0,0.0,M,0.0,M,,*7D
$GPGSA,A,3,01,02,03,04,05,06,07,08,09,10,11,12,1.0,1.0,1.0*30
$GPRMC,151228.361,A,4112.709,N,00839.211,W,038.9,106.1,290622,000.0,W*60
$GPGGA,151229.361,4112.706,N,00839.198,W,1,12,1.0,0.0,M,0.0,M,,*71
$GPGSA,A,3,01,02,03,04,05,06,07,08,09,10,11,12,1.0,1.0,1.0*30
$GPRMC,151229.361,A,4112.706,N,00839.198,W,038.9,095.9,290622,000.0,W*6F
$GPGGA,151230.361,4112.704,N,00839.184,W,1,12,1.0,0.0,M,0.0,M,,*76
$GPGSA,A,3,01,02,03,04,05,06,07,08,09,10,11,12,1.0,1.0,1.0*30
$GPRMC,151230.361,A,4112.704,N,00839.184,W,038.9,095.9,290622,000.0,W*68
$GPGGA,151231.361,4112.703,N,00839.169,W,1,12,1.0,0.0,M,0.0,M,,*73
$GPGSA,A,3,01,02,03,04,05,06,07,08,09,10,11,12,1.0,1.0,1.0*30
$GPRMC,151231.361,A,4112.703,N,00839.169,W,038.9,095.9,290622,000.0,W*6D
$GPGGA,151232.361,4112.701,N,00839.155,W,1,12,1.0,0.0,M,0.0,M,,*7D
$GPGSA,A,3,01,02,03,04,05,06,07,08,09,10,11,12,1.0,1.0,1.0*30
$GPRMC,151232.361,A,4112.701,N,00839.155,W,038.9,095.9,290622,000.0,W*63
$GPGGA,151233.361,4112.700,N,00839.141,W,1,12,1.0,0.0,M,0.0,M,,*78
$GPGSA,A,3,01,02,03,04,05,06,07,08,09,10,11,12,1.0,1.0,1.0*30
$GPRMC,151233.361,A,4112.700,N,00839.141,W,038.9,095.9,290622,000.0,W*66
$GPGGA,151234.361,4112.698,N,00839.127,W,1,12,1.0,0.0,M,0.0,M,,*7F
$GPGSA,A,3,01,02,03,04,05,06,07,08,09,10,11,12,1.0,1.0,1.0*30
$GPRMC,151234.361,A,4112.698,N,00839.127,W,038.9,095.9,290622,000.0,W*61
$GPGGA,151235.361,4112.697,N,00839.113,W,1,12,1.0,0.0,M,0.0,M,,*76
$GPGSA,A,3,01,02,03,04,05,06,07,08,09,10,11,12,1.0,1.0,1.0*30
$GPRMC,151235.361,A,4112.697,N,00839.113,W,038.9,095.9,290622,000.0,W*68
$GPGGA,151236.361,4112.695,N,00839.098,W,1,12,1.0,0.0,M,0.0,M,,*75
$GPGSA,A,3,01,02,03,04,05,06,07,08,09,10,11,12,1.0,1.0,1.0*30
$GPRMC,151236.361,A,4112.695,N,00839.098,W,038.9,095.9,290622,000.0,W*6B
$GPGGA,151237.361,4112.694,N,00839.084,W,1,12,1.0,0.0,M,0.0,M,,*78
$GPGSA,A,3,01,02,03,04,05,06,07,08,09,10,11,12,1.0,1.0,1.0*30
$GPRMC,151237.361,A,4112.694,N,00839.084,W,038.9,095.9,290622,000.0,W*66
$GPGGA,151238.361,4112.692,N,00839.070,W,1,12,1.0,0.0,M,0.0,M,,*7A
$GPGSA,A,3,01,02,03,04,05,06,07,08,09,10,11,12,1.0,1.0,1.0*30
$GPRMC,151238.361,A,4112.692,N,00839.070,W,038.9,095.9,290622,000.0,W*64
$GPGGA,151239.361,4112.691,N,00839.056,W,1,12,1.0,0.0,M,0.0,M,,*7C
$GPGSA,A,3,01,02,03,04,05,06,07,08,09,10,11,12,1.0,1.0,1.0*30
$GPRMC,151239.361,A,4112.691,N,00839.056,W,038.9,083.3,290622,000.0,W*6F
$GPGGA,151240.361,4112.692,N,00839.042,W,1,12,1.0,0.0,M,0.0,M,,*74
$GPGSA,A,3,01,02,03,04,05,06,07,08,09,10,11,12,1.0,1.0,1.0*30
$GPRMC,151240.361,A,4112.692,N,00839.042,W,038.9,083.3,290622,000.0,W*67
$GPGGA,151241.361,4112.694,N,00839.027,W,1,12,1.0,0.0,M,0.0,M,,*70
$GPGSA,A,3,01,02,03,04,05,06,07,08,09,10,11,12,1.0,1.0,1.0*30
$GPRMC,151241.361,A,4112.694,N,00839.027,W,038.9,083.3,290622,000.0,W*63
$GPGGA,151242.361,4112.696,N,00839.013,W,1,12,1.0,0.0,M,0.0,M,,*76
$GPGSA,A,3,01,02,03,04,05,06,07,08,09,10,11,12,1.0,1.0,1.0*30
$GPRMC,151242.361,A,4112.696,N,00839.013,W,038.9,083.3,290622,000.0,W*65
$GPGGA,151243.361,4112.697,N,00838.999,W,1,12,1.0,0.0,M,0.0,M,,*7C
$GPGSA,A,3,01,02,03,04,05,06,07,08,09,10,11,12,1.0,1.0,1.0*30
$GPRMC,151243.361,A,4112.697,N,00838.999,W,038.9,083.3,290622,000.0,W*6F
$GPGGA,151244.361,4112.699,N,00838.985,W,1,12,1.0,0.0,M,0.0,M,,*78
$GPGSA,A,3,01,02,03,04,05,06,07,08,09,10,11,12,1.0,1.0,1.0*30
$GPRMC,151244.361,A,4112.699,N,00838.985,W,038.9,083.3,290622,000.0,W*6B
$GPGGA,151245.361,4112.701,N,00838.971,W,1,12,1.0,0.0,M,0.0,M,,*72
$GPGSA,A,3,01,02,03,04,05,06,07,08,09,10,11,12,1.0,1.0,1.0*30
$GPRMC,151245.361,A,4112.701,N,00838.971,W,038.9,083.3,290622,000.0,W*61
$GPGGA,151246.361,4112.702,N,00838.957,W,1,12,1.0,0.0,M,0.0,M,,*76
$GPGSA,A,3,01,02,03,04,05,06,07,08,09,10,11,12,1.0,1.0,1.0*30
$GPRMC,151246.361,A,4112.702,N,00838.957,W,038.9,083.3,290622,000.0,W*65
$GPGGA,151247.361,4112.704,N,00838.942,W,1,12,1.0,0.0,M,0.0,M,,*75
$GPGSA,A,3,01,02,03,04,05,06,07,08,09,10,11,12,1.0,1.0,1.0*30
$GPRMC,151247.361,A,4112.704,N,00838.942,W,038.9,083.3,290622,000.0,W*66
$GPGGA,151248.361,4112.706,N,00838.928,W,1,12,1.0,0.0,M,0.0,M,,*74
$GPGSA,A,3,01,02,03,04,05,06,07,08,09,10,11,12,1.0,1.0,1.0*30
$GPRMC,151248.361,A,4112.706,N,00838.928,W,038.9,083.3,290622,000.0,W*67
$GPGGA,151249.361,4112.707,N,00838.914,W,1,12,1.0,0.0,M,0.0,M,,*7B
$GPGSA,A,3,01,02,03,04,05,06,07,08,09,10,11,12,1.0,1.0,1.0*30
$GPRMC,151249.361,A,4112.707,N,00838.914,W,038.9,083.3,290622,000.0,W*68
$GPGGA,151250.361,4112.709,N,00838.900,W,1,12,1.0,0.0,M,0.0,M,,*78
$GPGSA,A,3,01,02,03,04,05,06,07,08,09,10,11,12,1.0,1.0,1.0*30
$GPRMC,151250.361,A,4112.709,N,00838.900,W,038.9,083.3,290622,000.0,W*6B
$GPGGA,151251.361,4112.711,N,00838.886,W,1,12,1.0,0.0,M,0.0,M,,*7F
$GPGSA,A,3,01,02,03,04,05,06,07,08,09,10,11,12,1.0,1.0,1.0*30
$GPRMC,151251.361,A,4112.711,N,00838.886,W,038.9,083.3,290622,000.0,W*6C
$GPGGA,151252.361,4112.712,N,00838.871,W,1,12,1.0,0.0,M,0.0,M,,*77
$GPGSA,A,3,01,02,03,04,05,06,07,08,09,10,11,12,1.0,1.0,1.0*30
$GPRMC,151252.361,A,4112.712,N,00838.871,W,038.9,083.3,290622,000.0,W*64
$GPGGA,151253.361,4112.714,N,00838.857,W,1,12,1.0,0.0,M,0.0,M,,*74
$GPGSA,A,3,01,02,03,04,05,06,07,08,09,10,11,12,1.0,1.0,1.0*30
$GPRMC,151253.361,A,4112.714,N,00838.857,W,038.9,093.4,290622,000.0,W*61
$GPGGA,151254.361,4112.713,N,00838.843,W,1,12,1.0,0.0,M,0.0,M,,*71
$GPGSA,A,3,01,02,03,04,05,06,07,08,09,10,11,12,1.0,1.0,1.0*30
$GPRMC,151254.361,A,4112.713,N,00838.843,W,038.9,093.4,290622,000.0,W*64
$GPGGA,151255.361,4112.712,N,00838.829,W,1,12,1.0,0.0,M,0.0,M,,*7D
$GPGSA,A,3,01,02,03,04,05,06,07,08,09,10,11,12,1.0,1.0,1.0*30
$GPRMC,151255.361,A,4112.712,N,00838.829,W,038.9,093.4,290622,000.0,W*68
$GPGGA,151256.361,4112.711,N,00838.814,W,1,12,1.0,0.0,M,0.0,M,,*73
$GPGSA,A,3,01,02,03,04,05,06,07,08,09,10,11,12,1.0,1.0,1.0*30
$GPRMC,151256.361,A,4112.711,N,00838.814,W,038.9,093.4,290622,000.0,W*66
$GPGGA,151257.361,4112.711,N,00838.800,W,1,12,1.0,0.0,M,0.0,M,,*77
$GPGSA,A,3,01,02,03,04,05,06,07,08,09,10,11,12,1.0,1.0,1.0*30
$GPRMC,151257.361,A,4112.711,N,00838.800,W,038.9,093.4,290622,000.0,W*62
$GPGGA,151258.361,4112.710,N,00838.786,W,1,12,1.0,0.0,M,0.0,M,,*78
$GPGSA,A,3,01,02,03,04,05,06,07,08,09,10,11,12,1.0,1.0,1.0*30
$GPRMC,151258.361,A,4112.710,N,00838.786,W,038.9,093.4,290622,000.0,W*6D
$GPGGA,151259.361,4112.709,N,00838.771,W,1,12,1.0,0.0,M,0.0,M,,*79
$GPGSA,A,3,01,02,03,04,05,06,07,08,09,10,11,12,1.0,1.0,1.0*30
$GPRMC,151259.361,A,4112.709,N,00838.771,W,038.9,093.4,290622,000.0,W*6C
$GPGGA,151300.361,4112.708,N,00838.757,W,1,12,1.0,0.0,M,0.0,M,,*71
$GPGSA,A,3,01,02,03,04,05,06,07,08,09,10,11,12,1.0,1.0,1.0*30
$GPRMC,151300.361,A,4112.708,N,00838.757,W,038.9,093.4,290622,000.0,W*64
$GPGGA,151301.361,4112.707,N,00838.743,W,1,12,1.0,0.0,M,0.0,M,,*7A
$GPGSA,A,3,01,02,03,04,05,06,07,08,09,10,11,12,1.0,1.0,1.0*30
$GPRMC,151301.361,A,4112.707,N,00838.743,W,038.9,093.4,290622,000.0,W*6F
$GPGGA,151302.361,4112.706,N,00838.729,W,1,12,1.0,0.0,M,0.0,M,,*74
$GPGSA,A,3,01,02,03,04,05,06,07,08,09,10,11,12,1.0,1.0,1.0*30
$GPRMC,151302.361,A,4112.706,N,00838.729,W,038.9,093.4,290622,000.0,W*61
$GPGGA,151303.361,4112.705,N,00838.714,W,1,12,1.0,0.0,M,0.0,M,,*78
$GPGSA,A,3,01,02,03,04,05,06,07,08,09,10,11,12,1.0,1.0,1.0*30
$GPRMC,151303.361,A,4112.705,N,00838.714,W,038.9,093.4,290622,000.0,W*6D
$GPGGA,151304.361,4112.705,N,00838.700,W,1,12,1.0,0.0,M,0.0,M,,*7A
$GPGSA,A,3,01,02,03,04,05,06,07,08,09,10,11,12,1.0,1.0,1.0*30
$GPRMC,151304.361,A,4112.705,N,00838.700,W,038.9,086.5,290622,000.0,W*6A
$GPGGA,151305.361,4112.705,N,00838.686,W,1,12,1.0,0.0,M,0.0,M,,*74
$GPGSA,A,3,01,02,03,04,05,06,07,08,09,10,11,12,1.0,1.0,1.0*30
$GPRMC,151305.361,A,4112.705,N,00838.686,W,038.9,086.5,290622,000.0,W*64
$GPGGA,151306.361,4112.706,N,00838.671,W,1,12,1.0,0.0,M,0.0,M,,*7C
$GPGSA,A,3,01,02,03,04,05,06,07,08,09,10,11,12,1.0,1.0,1.0*30
$GPRMC,151306.361,A,4112.706,N,00838.671,W,038.9,086.5,290622,000.0,W*6C
$GPGGA,151307.361,4112.707,N,00838.657,W,1,12,1.0,0.0,M,0.0,M,,*78
$GPGSA,A,3,01,02,03,04,05,06,07,08,09,10,11,12,1.0,1.0,1.0*30
$GPRMC,151307.361,A,4112.707,N,00838.657,W,038.9,086.5,290622,000.0,W*68
$GPGGA,151308.361,4112.708,N,00838.643,W,1,12,1.0,0.0,M,0.0,M,,*7D
$GPGSA,A,3,01,02,03,04,05,06,07,08,09,10,11,12,1.0,1.0,1.0*30
$GPRMC,151308.361,A,4112.708,N,00838.643,W,038.9,086.5,290622,000.0,W*6D
$GPGGA,151309.361,4112.709,N,00838.628,W,1,12,1.0,0.0,M,0.0,M,,*70
$GPGSA,A,3,01,02,03,04,05,06,07,08,09,10,11,12,1.0,1.0,1.0*30
$GPRMC,151309.361,A,4112.709,N,00838.628,W,038.9,070.5,290622,000.0,W*69
$GPGGA,151310.361,4112.713,N,00838.616,W,1,12,1.0,0.0,M,0.0,M,,*7E
$GPGSA,A,3,01,02,03,04,05,06,07,08,09,10,11,12,1.0,1.0,1.0*30
$GPRMC,151310.361,A,4112.713,N,00838.616,W,038.9,070.5,290622,000.0,W*67
$GPGGA,151311.361,4112.718,N,00838.603,W,1,12,1.0,0.0,M,0.0,M,,*70
$GPGSA,A,3,01,02,03,04,05,06,07,08,09,10,11,12,1.0,1.0,1.0*30
$GPRMC,151311.361,A,4112.718,N,00838.603,W,038.9,070.5,290622,000.0,W*69
$GPGGA,151312.361,4112.723,N,00838.590,W,1,12,1.0,0.0,M,0.0,M,,*72
$GPGSA,A,3,01,02,03,04,05,06,07,08,09,10,11,12,1.0,1.0,1.0*30
$GPRMC,151312.361,A,4112.723,N,00838.590,W,038.9,070.5,290622,000.0,W*6B
$GPGGA,151313.361,4112.727,N,00838.577,W,1,12,1.0,0.0,M,0.0,M,,*7E
$GPGSA,A,3,01,02,03,04,05,06,07,08,09,10,11,12,1.0,1.0,1.0*30
$GPRMC,151313.361,A,4112.727,N,00838.577,W,038.9,070.5,290622,000.0,W*67
$GPGGA,151314.361,4112.732,N,00838.564,W,1,12,1.0,0.0,M,0.0,M,,*7F
$GPGSA,A,3,01,02,03,04,05,06,07,08,09,10,11,12,1.0,1.0,1.0*30
$GPRMC,151314.361,A,4112.732,N,00838.564,W,038.9,070.5,290622,000.0,W*66
$GPGGA,151315.361,4112.736,N,00838.551,W,1,12,1.0,0.0,M,0.0,M,,*7C
$GPGSA,A,3,01,02,03,04,05,06,07,08,09,10,11,12,1.0,1.0,1.0*30
$GPRMC,151315.361,A,4112.736,N,00838.551,W,038.9,050.1,290622,000.0,W*63
$GPGGA,151316.361,4112.744,N,00838.541,W,1,12,1.0,0.0,M,0.0,M,,*7B
$GPGSA,A,3,01,02,03,04,05,06,07,08,09,10,11,12,1.0,1.0,1.0*30
$GPRMC,151316.361,A,4112.744,N,00838.541,W,038.9,050.1,290622,000.0,W*64
$GPGGA,151317.361,4112.752,N,00838.531,W,1,12,1.0,0.0,M,0.0,M,,*7A
$GPGSA,A,3,01,02,03,04,05,06,07,08,09,10,11,12,1.0,1.0,1.0*30
$GPRMC,151317.361,A,4112.752,N,00838.531,W,038.9,050.1,290622,000.0,W*65
$GPGGA,151318.361,4112.760,N,00838.522,W,1,12,1.0,0.0,M,0.0,M,,*76
$GPGSA,A,3,01,02,03,04,05,06,07,08,09,10,11,12,1.0,1.0,1.0*30
$GPRMC,151318.361,A,4112.760,N,00838.522,W,038.9,050.1,290622,000.0,W*69
$GPGGA,151319.361,4112.768,N,00838.512,W,1,12,1.0,0.0,M,0.0,M,,*7C
$GPGSA,A,3,01,02,03,04,05,06,07,08,09,10,11,12,1.0,1.0,1.0*30
$GPRMC,151319.361,A,4112.768,N,00838.512,W,038.9,050.1,290622,000.0,W*63
$GPGGA,151320.361,4112.776,N,00838.503,W,1,12,1.0,0.0,M,0.0,M,,*79
$GPGSA,A,3,01,02,03,04,05,06,07,08,09,10,11,12,1.0,1.0,1.0*30
$GPRMC,151320.361,A,4112.776,N,00838.503,W,038.9,028.3,290622,000.0,W*6B
$GPGGA,151321.361,4112.786,N,00838.497,W,1,12,1.0,0.0,M,0.0,M,,*7B
$GPGSA,A,3,01,02,03,04,05,06,07,08,09,10,11,12,1.0,1.0,1.0*30
$GPRMC,151321.361,A,4112.786,N,00838.497,W,038.9,028.3,290622,000.0,W*69
$GPGGA,151322.361,4112.796,N,00838.492,W,1,12,1.0,0.0,M,0.0,M,,*7C
$GPGSA,A,3,01,02,03,04,05,06,07,08,09,10,11,12,1.0,1.0,1.0*30
$GPRMC,151322.361,A,4112.796,N,00838.492,W,038.9,028.3,290622,000.0,W*6E
$GPGGA,151323.361,4112.806,N,00838.486,W,1,12,1.0,0.0,M,0.0,M,,*7E
$GPGSA,A,3,01,02,03,04,05,06,07,08,09,10,11,12,1.0,1.0,1.0*30
$GPRMC,151323.361,A,4112.806,N,00838.486,W,038.9,028.3,290622,000.0,W*6C
$GPGGA,151324.361,4112.816,N,00838.481,W,1,12,1.0,0.0,M,0.0,M,,*7F
$GPGSA,A,3,01,02,03,04,05,06,07,08,09,10,11,12,1.0,1.0,1.0*30
$GPRMC,151324.361,A,4112.816,N,00838.481,W,038.9,028.3,290622,000.0,W*6D
$GPGGA,151325.361,4112.826,N,00838.476,W,1,12,1.0,0.0,M,0.0,M,,*75
$GPGSA,A,3,01,02,03,04,05,06,07,08,09,10,11,12,1.0,1.0,1.0*30
$GPRMC,151325.361,A,4112.826,N,00838.476,W,038.9,028.3,290622,000.0,W*67
$GPGGA,151326.361,4112.836,N,00838.470,W,1,12,1.0,0.0,M,0.0,M,,*71
$GPGSA,A,3,01,02,03,04,05,06,07,08,09,10,11,12,1.0,1.0,1.0*30
$GPRMC,151326.361,A,4112.836,N,00838.470,W,038.9,028.3,290622,000.0,W*63
$GPGGA,151327.361,4112.846,N,00838.465,W,1,12,1.0,0.0,M,0.0,M,,*73
$GPGSA,A,3,01,02,03,04,05,06,07,08,09,10,11,12,1.0,1.0,1.0*30
$GPRMC,151327.361,A,4112.846,N,00838.465,W,038.9,028.3,290622,000.0,W*61
$GPGGA,151328.361,4112.856,N,00838.459,W,1,12,1.0,0.0,M,0.0,M,,*72
$GPGSA,A,3,01,02,03,04,05,06,07,08,09,10,11,12,1.0,1.0,1.0*30
$GPRMC,151328.361,A,4112.856,N,00838.459,W,038.9,028.3,290622,000.0,W*60
$GPGGA,151329.361,4112.866,N,00838.454,W,1,12,1.0,0.0,M,0.0,M,,*7D
$GPGSA,A,3,01,02,03,04,05,06,07,08,09,10,11,12,1.0,1.0,1.0*30
$GPRMC,151329.361,A,4112.866,N,00838.454,W,038.9,028.3,290622,000.0,W*6F
$GPGGA,151330.361,4112.876,N,00838.449,W,1,12,1.0,0.0,M,0.0,M,,*78
$GPGSA,A,3,01,02,03,04,05,06,07,08,09,10,11,12,1.0,1.0,1.0*30
$GPRMC,151330.361,A,4112.876,N,00838.449,W,038.9,028.3,290622,000.0,W*6A
$GPGGA,151331.361,4112.886,N,00838.443,W,1,12,1.0,0.0,M,0.0,M,,*7C
$GPGSA,A,3,01,02,03,04,05,06,07,08,09,10,11,12,1.0,1.0,1.0*30
$GPRMC,151331.361,A,4112.886,N,00838.443,W,038.9,028.3,290622,000.0,W*6E
$GPGGA,151332.361,4112.896,N,00838.438,W,1,12,1.0,0.0,M,0.0,M,,*72
$GPGSA,A,3,01,02,03,04,05,06,07,08,09,10,11,12,1.0,1.0,1.0*30
$GPRMC,151332.361,A,4112.896,N,00838.438,W,038.9,028.3,290622,000.0,W*60
$GPGGA,151333.361,4112.906,N,00838.432,W,1,12,1.0,0.0,M,0.0,M,,*71
$GPGSA,A,3,01,02,03,04,05,06,07,08,09,10,11,12,1.0,1.0,1.0*30
$GPRMC,151333.361,A,4112.906,N,00838.432,W,038.9,028.3,290622,000.0,W*63
$GPGGA,151334.361,4112.916,N,00838.427,W,1,12,1.0,0.0,M,0.0,M,,*73
$GPGSA,A,3,01,02,03,04,05,06,07,08,09,10,11,12,1.0,1.0,1.0*30
$GPRMC,151334.361,A,4112.916,N,00838.427,W,038.9,051.0,290622,000.0,W*6C
$GPGGA,151335.361,4112.924,N,00838.417,W,1,12,1.0,0.0,M,0.0,M,,*70
$GPGSA,A,3,01,02,03,04,05,06,07,08,09,10,11,12,1.0,1.0,1.0*30
$GPRMC,151335.361,A,4112.924,N,00838.417,W,038.9,051.0,290622,000.0,W*6F
$GPGGA,151336.361,4112.932,N,00838.408,W,1,12,1.0,0.0,M,0.0,M,,*7A
$GPGSA,A,3,01,02,03,04,05,06,07,08,09,10,11,12,1.0,1.0,1.0*30
$GPRMC,151336.361,A,4112.932,N,00838.408,W,038.9,051.0,290622,000.0,W*65
$GPGGA,151337.361,4112.940,N,00838.398,W,1,12,1.0,0.0,M,0.0,M,,*70
$GPGSA,A,3,01,02,03,04,05,06,07,08,09,10,11,12,1.0,1.0,1.0*30
$GPRMC,151337.361,A,4112.940,N,00838.398,W,038.9,051.0,290622,000.0,W*6F
$GPGGA,151338.361,4112.948,N,00838.388,W,1,12,1.0,0.0,M,0.0,M,,*76
$GPGSA,A,3,01,02,03,04,05,06,07,08,09,10,11,12,1.0,1.0,1.0*30
$GPRMC,151338.361,A,4112.948,N,00838.388,W,038.9,061.5,290622,000.0,W*6F
$GPGGA,151339.361,4112.954,N,00838.376,W,1,12,1.0,0.0,M,0.0,M,,*7B
$GPGSA,A,3,01,02,03,04,05,06,07,08,09,10,11,12,1.0,1.0,1.0*30
$GPRMC,151339.361,A,4112.954,N,00838.376,W,038.9,061.5,290622,000.0,W*62
$GPGGA,151340.361,4112.961,N,00838.365,W,1,12,1.0,0.0,M,0.0,M,,*71
$GPGSA,A,3,01,02,03,04,05,06,07,08,09,10,11,12,1.0,1.0,1.0*30
$GPRMC,151340.361,A,4112.961,N,00838.365,W,038.9,061.5,290622,000.0,W*68
